- address: 26, Kyungheedae-ro, Dongdaemun-gu
  city: Seoul
  country: South Korea
  domain: khu.ac.kr
  latitude: '37.5985'
  longitude: '126.9783'
  university: Kyung Hee University
- address: 1 Brookings Drive
  city: Washington
  country: United States
  domain: wustl.edu
  latitude: '38.895'
  longitude: '-77.03667'
  university: Washington University in St. Louis
- address: 1 Capen Hall
  city: Buffalo
  country: United States
  domain: buffalo.edu
  latitude: '42.88639'
  longitude: '-78.87861'
  university: University at Buffalo
- address: 1 College Hall, Room 100
  city: Philadelphia
  country: United States
  domain: upenn.edu
  latitude: '39.95222'
  longitude: '-75.16417'
  university: University of Pennsylvania
- address: 1 Gheringhap Street
  city: Geelong
  country: Australia
  domain: deakin.edu.au
  latitude: '-38.15346'
  longitude: '144.3581'
  university: Deakin University
- address: 1 James Cook Drive
  city: Townsville
  country: Australia
  domain: jcu.edu.au
  latitude: '-19.26639'
  longitude: '146.8057'
  university: James Cook University
- address: 1 Jan Smuts Avenue, Braamfontein, Johannesburg
  city: Johannesburg
  country: South Africa
  domain: wits.ac.za
  latitude: '-26.205172'
  longitude: '28.049814'
  university: University of the Witwatersrand
- address: 1 Kingsbury Drive
  city: Melbourne
  country: Australia
  domain: latrobe.edu.au
  latitude: '-37.81394'
  longitude: '144.96342'
  university: La Trobe University
- address: 1 Qinghuayuan, Haidian District, Beijing, China
  city: Beijing
  country: China
  domain: tsinghua.edu.cn
  latitude: '39.92889'
  longitude: '116.388336'
  university: Tsinghua University
- address: 1 Shields Avenue
  city: Davis
  country: United States
  domain: ucdavis.edu
  latitude: '38.545'
  longitude: '-121.73944'
  university: University of California, Davis
- address: 1 University of Arkansas
  city: Fayetteville
  country: United States
  domain: uark.edu
  latitude: '36.0625'
  longitude: '-94.15722'
  university: University of Arkansas - Fayetteville
- address: 1 University of New Mexico
  city: Mexico
  country: United States
  domain: unm.edu
  latitude: '39.169724'
  longitude: '-91.882774'
  university: University of New Mexico
- address: 1 Weigang, Jiangsu Province, China
  city: Nanjing
  country: China
  domain: njau.edu.cn
  latitude: '32.06167'
  longitude: '118.77778'
  university: Nanjing Agricultural University
- address: 1 Xikang Road, Jiangsu Province, China
  city: Nanjing
  country: China
  domain: hhu.edu.cn
  latitude: '32.06167'
  longitude: '118.77778'
  university: Hohai University
- address: 1-1 Rokkodai-cho, Nada-ku
  city: Kobe
  country: Japan
  domain: kobe-u.ac.jp
  latitude: '34.691303'
  longitude: '135.183'
  university: Kobe University
- address: 1-1-1 Tennodai
  city: Tsukuba
  country: Japan
  domain: tsukuba.ac.jp
  latitude: '36.083332'
  longitude: '140.11667'
  university: University of Tsukuba
- address: 1-1-1 Tsushima-naka, Kita-ku
  city: Okayama
  country: Japan
  domain: okayama-u.ac.jp
  latitude: ''
  longitude: ''
  university: Okayama University
- address: 1-14 Bunkyo
  city: Nagasaki
  country: Japan
  domain: nagasaki-u.ac.jp
  latitude: ''
  longitude: ''
  university: Nagasaki University
- address: 1-2-7-601 Asahimachi, Abeno-ku
  city: Osaka
  country: Japan
  domain: omu.ac.jp
  latitude: ''
  longitude: ''
  university: Osaka Metropolitan University
- address: 1-3 Kagurazaka, Shinjuku-ku
  city: Tokyo
  country: Japan
  domain: tus.ac.jp
  latitude: '35.685'
  longitude: '139.75139'
  university: Tokyo University of Science
- address: 1-3-2 Kagamiyama
  city: Hiroshima
  country: Japan
  domain: hiroshima-u.ac.jp
  latitude: '34.434845'
  longitude: '132.74062'
  university: Hiroshima University
- address: 1-33, Yayoi-cho, Inage-ku,
  city: Chiba
  country: Japan
  domain: chiba-u.ac.jp
  latitude: ''
  longitude: ''
  university: Chiba University
- address: 1-5-45 Yushima
  city: Tokyo
  country: Japan
  domain: tmd.ac.jp
  latitude: '35.685'
  longitude: '139.75139'
  university: Tokyo Medical and Dental University
- address: 1-7-14 Nishi-Waseda, Shinjuku-ku
  city: Tokyo
  country: Japan
  domain: waseda.jp
  latitude: '35.685'
  longitude: '139.75139'
  university: Waseda University
- address: 10 Lo Ping Road, Tai Po, New Territories, Hong Kong, China
  city: Hong Kong
  country: China
  domain: eduhk.hk
  latitude: ''
  longitude: ''
  university: Education University of Hong Kong
- address: 10 Xitoutiao, Youanmen Fengtai, , Beijing, China
  city: Beijing
  country: China
  domain: ccmu.edu.cn
  latitude: '39.92889'
  longitude: '116.388336'
  university: Capital Medical University
- address: 100 Church St. SE
  city: Minneapolis
  country: United States
  domain: twin-cities.umn.edu
  latitude: '44.98'
  longitude: '-93.26361'
  university: University of Minnesota - Twin Cities
- address: 100 Enrollment Services Center
  city: Ames
  country: United States
  domain: iastate.edu
  latitude: '42.03472'
  longitude: '-93.61972'
  university: Iowa State University
- address: 100, Daxue Road, Guangxi Province, China
  city: Nanning
  country: China
  domain: gxu.edu.cn
  latitude: '22.816668'
  longitude: '108.316666'
  university: Guangxi University
- address: 100,Shih-Chuan 1st Road
  city: ''
  country: China
  domain: kmu.edu.tw
  latitude: ''
  longitude: ''
  university: Kaohsiung Medical University
- address: 1001 University Road, Hsinchu, Taiwan
  city: ''
  country: China
  domain: nycu.edu.tw
  latitude: ''
  longitude: ''
  university: National Yang Ming Chiao Tung University
- address: 101 Jessup Hall
  city: Iowa City
  country: United States
  domain: uiowa.edu
  latitude: '41.66111'
  longitude: '-91.53'
  university: University of Iowa
- address: 101 Morrison Hall
  city: Princeton
  country: United States
  domain: princeton.edu
  latitude: '40.34861'
  longitude: '-74.65945'
  university: Princeton University
- address: 1037 Luoyu Road, Hubei Province, China
  city: Wuhan
  country: China
  domain: hust.edu.cn
  latitude: '30.580126'
  longitude: '114.27341'
  university: Huazhong University of Science and Technology
- address: 105 Jesse Hall
  city: Columbia
  country: United States
  domain: missouri.edu
  latitude: '38.951668'
  longitude: '-92.333885'
  university: "University of Missouri\u2013Columbia"
- address: 107 South Indiana Avenue
  city: Bloomington
  country: United States
  domain: indiana.edu
  latitude: '39.16528'
  longitude: '-86.52639'
  university: Indiana University Bloomington
- address: 10900 Euclid Avenue
  city: Cleveland
  country: United States
  domain: case.edu
  latitude: '33.74389'
  longitude: '-90.724724'
  university: Case Western Reserve University
- address: 110 Eighth Street
  city: Troy
  country: United States
  domain: rpi.edu
  latitude: '42.728333'
  longitude: '-73.69222'
  university: Rensselaer Polytechnic Institute
- address: 11200 SW 8th Street
  city: Florida
  country: United States
  domain: fiu.edu
  latitude: '18.365278'
  longitude: '-66.5675'
  university: Florida International University
- address: 1151 Richmond Street
  city: London
  country: Canada
  domain: uwo.ca
  latitude: '42.983334'
  longitude: '-81.25'
  university: Western University
- address: 1156 High Street
  city: Santa Cruz
  country: United States
  domain: ucsc.edu
  latitude: '36.974167'
  longitude: '-122.029724'
  university: University of California, Santa Cruz
- address: 116th Street and Broadway
  city: New York
  country: United States
  domain: columbia.edu
  latitude: '40.71417'
  longitude: '-74.006386'
  university: Columbia University
- address: 1200 East California Boulevard
  city: Pasadena
  country: United States
  domain: caltech.edu
  latitude: '34.147778'
  longitude: '-118.14361'
  university: California Institute of Technology
- address: 121 Peele Hall, Campus Box 7103
  city: Carolina
  country: United States
  domain: ncsu.edu
  latitude: '18.382778'
  longitude: '-65.95778'
  university: North Carolina State University
- address: 122, Luoshi Road, Hubei Province, China
  city: Wuhan
  country: China
  domain: whut.edu.cn
  latitude: '30.580126'
  longitude: '114.27341'
  university: Wuhan University of Technology
- address: 1230 York Avenue
  city: New York
  country: United States
  domain: rockefeller.edu
  latitude: '40.71417'
  longitude: '-74.006386'
  university: Rockefeller University
- address: 1239 Siping Road, Shanghai, China
  city: Shanghai
  country: China
  domain: tongji.edu.cn
  latitude: '31.045555'
  longitude: '121.39972'
  university: Tongji University
- address: 124 La Trobe Street
  city: Melbourne
  country: Australia
  domain: rmit.edu.au
  latitude: '-37.81394'
  longitude: '144.96342'
  university: RMIT University
- address: 1280 Main Street East
  city: Hamilton
  country: Canada
  domain: mcmaster.ca
  latitude: '43.25'
  longitude: '-79.833336'
  university: McMaster University
- address: 1400 Washington Avenue
  city: Albany
  country: United States
  domain: albany.edu
  latitude: '42.6525'
  longitude: '-73.75667'
  university: University at Albany, SUNY
- address: 145 Xingda Rd.
  city: Taichung
  country: China
  domain: nchu.edu.tw
  latitude: ''
  longitude: ''
  university: National Chung Hsing University
- address: 1455 de Maisonneuve Boulevard West
  city: Montreal
  country: Canada
  domain: concordia.ca
  latitude: '45.5'
  longitude: '-73.583336'
  university: Concordia University
- address: 1459 Oxford Street
  city: Dalhousie
  country: Canada
  domain: dal.ca
  latitude: '48.066666'
  longitude: '-66.36667'
  university: Dalhousie University
- address: 15 Broadway
  city: Sydney
  country: Australia
  domain: uts.edu.au
  latitude: '-33.86148'
  longitude: '151.20547'
  university: University of Technology Sydney
- address: "15 parvis Ren\xE9 Descartes"
  city: Lyon
  country: France
  domain: ens-lyon.eu
  latitude: '45.74846'
  longitude: '4.846711'
  university: Ecole Normale Superieure - Lyon
- address: "15, rue de l'H\xF4tel Dieu, TSA 71117, 86073 POITIERS Cedex 9, France"
  city: Poitiers
  country: France
  domain: univ-poitiers.fr
  latitude: '46.583332'
  longitude: '0.333333'
  university: University of Poitiers
- address: 1500 Illinois Street
  city: Golden
  country: United States
  domain: mines.edu
  latitude: '39.755554'
  longitude: '-105.22056'
  university: Colorado School of Mines
- address: 1500 University Avenue
  city: Morgantown
  country: United States
  domain: wvu.edu
  latitude: '39.629444'
  longitude: '-79.95611'
  university: West Virginia University
- address: 1501 West Chestnut
  city: Denton
  country: United States
  domain: unt.edu
  latitude: '33.21472'
  longitude: '-97.132774'
  university: University of North Texas
- address: 1585 E 13th Ave
  city: Oregon
  country: United States
  domain: uoregon.edu
  latitude: '41.643612'
  longitude: '-83.486946'
  university: University of Oregon
- address: 16 Richmond Street
  city: Glasgow
  country: United Kingdom
  domain: strath.ac.uk
  latitude: '55.833332'
  longitude: '-4.25'
  university: University of Strathclyde
- address: 161 Bascom Hall 500 Lincoln Drive
  city: Madison
  country: United States
  domain: wisc.edu
  latitude: '34.699165'
  longitude: '-86.74834'
  university: "University of Wisconsin\u2013Madison"
- address: 163 rue Auguste Broussonnet
  city: Montpellier
  country: France
  domain: umontpellier.fr
  latitude: '43.61092'
  longitude: '3.87723'
  university: University of Montpellier
- address: 1720 2nd Ave S
  city: Birmingham
  country: United States
  domain: uab.edu
  latitude: '33.520557'
  longitude: '-86.8025'
  university: University of Alabama at Birmingham
- address: 18 Fuxue Road, Changping, Beijing, China
  city: Beijing
  country: China
  domain: cup.edu.cn
  latitude: '39.92889'
  longitude: '116.388336'
  university: China University of Petroleum-Beijing
- address: 1801 North Broad Street
  city: Temple
  country: United States
  domain: temple.edu
  latitude: '31.098055'
  longitude: '-97.3425'
  university: Temple University
- address: 182# Nanhu Avenue, East Lake High-tech Development Zone, Hubei Province,
    China
  city: Wuhan
  country: China
  domain: zuel.edu.cn
  latitude: '30.580126'
  longitude: '114.27341'
  university: Zhongnan University of Economics and Law
- address: 1834 Wake Forest Road
  city: Winston-Salem
  country: United States
  domain: wfu.edu
  latitude: '36.099724'
  longitude: '-80.244446'
  university: Wake Forest University
- address: 19 Mira street
  city: Ural
  country: Russia
  domain: urfu.ru
  latitude: '55.9052'
  longitude: '94.7537'
  university: Ural Federal University
- address: 1918 F Street, NW
  city: Washington
  country: United States
  domain: gwu.edu
  latitude: '38.895'
  longitude: '-77.03667'
  university: George Washington University
- address: "193\uFF0CTUNXI ROAD, Anhui Province, China"
  city: Hefei
  country: China
  domain: hfut.edu.cn
  latitude: '31.86389'
  longitude: '117.28083'
  university: Hefei University of Technology
- address: 199 Aba Khoushy Ave. Mount Carmel,
  city: Haifa
  country: Israel
  domain: haifa.ac.il
  latitude: '32.815556'
  longitude: '34.989166'
  university: University of Haifa
- address: 2 George Street
  city: Brisbane
  country: Australia
  domain: qut.edu.au
  latitude: '-27.47101'
  longitude: '153.02429'
  university: Queensland University of Technology
- address: 2 South Taibai Road, Shanxi Province, China
  city: Xi'an
  country: China
  domain: xidian.edu.cn
  latitude: ''
  longitude: ''
  university: Xidian University
- address: "2 Xue Yuan Road\uFF0CUniversity Town, Fujian Province, China"
  city: Fuzhou
  country: China
  domain: fzu.edu.cn
  latitude: '26.06139'
  longitude: '119.306114'
  university: Fuzhou University
- address: 2-1-1 Katahira, Aoba-ku
  city: Sendai
  country: Japan
  domain: tohoku.ac.jp
  latitude: '31.816668'
  longitude: '130.3'
  university: Tohoku University
- address: 2-12-1 Ookayama, Meguro-ku
  city: Tokyo
  country: Japan
  domain: titech.ac.jp
  latitude: '35.685'
  longitude: '139.75139'
  university: Tokyo Institute of Technology
- address: 2-15-45, Mita, Minato-ku
  city: Tokyo
  country: Japan
  domain: keio.ac.jp
  latitude: '35.685'
  longitude: '139.75139'
  university: Keio University
- address: 2-24, Shinkura-cho
  city: Tokushima
  country: Japan
  domain: tokushima-u.ac.jp
  latitude: ''
  longitude: ''
  university: Tokushima University
- address: 2-39-1 Kurokami, Chuo-ku
  city: Kumamoto
  country: Japan
  domain: kumamoto-u.ac.jp
  latitude: ''
  longitude: ''
  university: Kumamoto University
- address: 20 Myasnitskaya Street
  city: Moscow
  country: Russia
  domain: hse.ru
  latitude: '55.75222'
  longitude: '37.615555'
  university: National Research University Higher School of Economics
- address: 200 University Avenue West
  city: Waterloo
  country: Canada
  domain: uwaterloo.ca
  latitude: '43.466667'
  longitude: '-80.53333'
  university: University of Waterloo
- address: 201 Criser Hall
  city: Florida
  country: United States
  domain: ufl.edu
  latitude: '18.365278'
  longitude: '-66.5675'
  university: University of Florida
- address: 201 Dowman Drive
  city: Atlanta
  country: United States
  domain: emory.edu
  latitude: '33.74889'
  longitude: '-84.388054'
  university: Emory University
- address: 201 Old Main
  city: State College
  country: United States
  domain: psu.edu
  latitude: '40.793335'
  longitude: '-77.860275'
  university: Pennsylvania State University
- address: 201 Presidents Circle
  city: Salt Lake City
  country: United States
  domain: utah.edu
  latitude: '40.760834'
  longitude: '-111.890274'
  university: University of Utah
- address: 207 Parkhurst Hall
  city: Hanover
  country: United States
  domain: dartmouth.edu
  latitude: '43.70222'
  longitude: '-72.29'
  university: Dartmouth College
- address: 21 Lower Kent Ridge Road
  city: Singapore
  country: Singapore
  domain: nus.edu.sg
  latitude: '1.2930557'
  longitude: '103.855835'
  university: National University of Singapore
- address: "21, rue de l'\xC9cole-de-m\xE9decine"
  city: Paris
  country: France
  domain: sorbonne-universite.fr
  latitude: '48.86667'
  longitude: '2.333333'
  university: Sorbonne University
- address: 2131 Hillside Road
  city: Storrs
  country: United States
  domain: uconn.edu
  latitude: '41.808334'
  longitude: '-72.25'
  university: University of Connecticut
- address: 22 Hankoulu Road, Jiangsu Province, China
  city: Nanjing
  country: China
  domain: nju.edu.cn
  latitude: '32.06167'
  longitude: '118.77778'
  university: Nanjing University
- address: 22 Qixiangtai Road, Tianjin, Tianjin, China
  city: Tianjin
  country: China
  domain: tijmu.edu.cn
  latitude: '39.142223'
  longitude: '117.17667'
  university: Tianjin Medical University
- address: 22-2 Seto, kanazawa-ku
  city: Seto
  country: Japan
  domain: yokohama-cu.ac.jp
  latitude: '35.233334'
  longitude: '137.1'
  university: Yokohama City University
- address: 220 Handan Road, Shanghai, China
  city: Shanghai
  country: China
  domain: fudan.edu.cn
  latitude: '31.045555'
  longitude: '121.39972'
  university: Fudan University
- address: 220 South Jackson Street
  city: Athens
  country: United States
  domain: uga.edu
  latitude: '34.802776'
  longitude: '-86.971664'
  university: University of Georgia
- address: 222 Wangsimni-ro, Seongdong-gu
  city: Seoul
  country: South Korea
  domain: hanyang.ac.kr
  latitude: '37.5985'
  longitude: '126.9783'
  university: Hanyang University
- address: 225 North Avenue
  city: Atlanta
  country: United States
  domain: gatech.edu
  latitude: '33.74889'
  longitude: '-84.388054'
  university: Georgia Institute of Technology
- address: 229 North Taibai Ave, Shanxi Province, China
  city: Xi'an
  country: China
  domain: nwu.edu.cn
  latitude: ''
  longitude: ''
  university: Northwest University, Xi'an
- address: 230 Strong Hall, 1450 Jayhawk Blvd.
  city: Lawrence
  country: United States
  domain: ku.edu
  latitude: '38.97167'
  longitude: '-95.235'
  university: University of Kansas
- address: 2305 West End Avenue
  city: Nashville
  country: United States
  domain: vanderbilt.edu
  latitude: '36.165833'
  longitude: '-86.78445'
  university: Vanderbilt University
- address: "2325, rue de l'Universit\xE9"
  city: Quebec
  country: Canada
  domain: ulaval.ca
  latitude: '46.8'
  longitude: '-71.25'
  university: Laval University
- address: 2329 West Mall
  city: Vancouver
  country: Canada
  domain: ubc.ca
  latitude: '49.25'
  longitude: '-123.13333'
  university: University of British Columbia
- address: 235 West University Road, Neimenggu, China
  city: Hohhot
  country: China
  domain: imu.edu.cn
  latitude: '40.810555'
  longitude: '111.65222'
  university: Inner Mongolia University
- address: 238 Songling Road, Laoshan District, Shandong Province, China
  city: Qingdao
  country: China
  domain: ouc.edu.cn
  latitude: '36.09861'
  longitude: '120.37194'
  university: Ocean University of China
- address: 239 Huay Kaew Road
  city: Chiang Mai
  country: Thailand
  domain: cmu.ac.th
  latitude: '18.790377'
  longitude: '98.98468'
  university: Chiang Mai University
- address: "24 rue du G\xE9n\xE9ral-Dufour"
  city: Geneva
  country: Switzerland
  domain: unige.ch
  latitude: '46.195602'
  longitude: '6.148113'
  university: University of Geneva
- address: 243 Da Xue Road, Guangdong Province, China
  city: Shantou
  country: China
  domain: stu.edu.cn
  latitude: ''
  longitude: ''
  university: Shantou University
- address: 25-2, Sungkyunkwan-ro, Jongno-gu
  city: Seoul
  country: South Korea
  domain: skku.edu
  latitude: '37.5985'
  longitude: '126.9783'
  university: Sungkyunkwan University
- address: 250 Wuxing Street,
  city: ''
  country: China
  domain: tmu.edu.tw
  latitude: ''
  longitude: ''
  university: Taipei Medical University
- address: 2500 Campus Rd
  city: Honolulu
  country: United States
  domain: manoa.hawaii.edu
  latitude: '21.306944'
  longitude: '-157.85834'
  university: University of Hawaii at Manoa
- address: 2500 University Drive NW
  city: Calgary
  country: Canada
  domain: ucalgary.ca
  latitude: '51.083332'
  longitude: '-114.083336'
  university: University of Calgary
- address: 2500, Universite Blvd.
  city: Sherbrooke
  country: Canada
  domain: usherbrooke.ca
  latitude: '45.4'
  longitude: '-71.9'
  university: University of Sherbrooke
- address: 254 Phayathai Road, Pathumwan
  city: Bangkok
  country: Thailand
  domain: chula.ac.th
  latitude: '13.753979'
  longitude: '100.50144'
  university: Chulalongkorn University
- address: 260 Aldrich Hall, Irvine, CA 92697, USA
  city: Irvine
  country: United States
  domain: uci.edu
  latitude: '33.669445'
  longitude: '-117.82222'
  university: University of California, Irvine
- address: 2600 Clifton Ave
  city: Cincinnati
  country: United States
  domain: uc.edu
  latitude: '39.161945'
  longitude: '-84.45695'
  university: University of Cincinnati
- address: 27 King's College Circle, Room 206, Simcoe Hall
  city: Toronto
  country: Canada
  domain: utoronto.ca
  latitude: '43.666668'
  longitude: '-79.416664'
  university: University of Toronto
- address: 27 Memorial Drive West
  city: Bethlehem
  country: United States
  domain: lehigh.edu
  latitude: '40.62583'
  longitude: '-75.370834'
  university: Lehigh University
- address: 27 Rue MarcoZ 73000 Chambery, France
  city: "Chamb\xE9ry"
  country: France
  domain: univ-smb.fr
  latitude: '45.564648'
  longitude: '5.926453'
  university: Savoie Mont Blanc University
- address: "27\uFF0C Shanda Nanlu, Shandong Province, China"
  city: Jinan
  country: China
  domain: sdu.edu.cn
  latitude: '36.66833'
  longitude: '116.99722'
  university: Shandong University
- address: 29 Bahman Blvd.
  city: Tabriz
  country: Iran
  domain: tabrizu.ac.ir
  latitude: '38.08'
  longitude: '46.2919'
  university: University of Tabriz
- address: 2999 North Renmin Road, Songjiang District, Shanghai, China
  city: Shanghai
  country: China
  domain: dhu.edu.cn
  latitude: '31.045555'
  longitude: '121.39972'
  university: Donghua University
- address: "3 rue Joliot Curie, B\xE2timent Breguet, 91190 Gif-sur-Yvette, France"
  city: Paris
  country: France
  domain: universite-paris-saclay.fr
  latitude: '48.86667'
  longitude: '2.333333'
  university: Paris-Saclay University
- address: 3 Universiteto St.
  city: Vilnius
  country: Lithuania
  domain: vu.lt
  latitude: '54.683334'
  longitude: '25.316668'
  university: Vilnius University
- address: 3-1-1, Asahi
  city: Asahi
  country: Japan
  domain: shinshu-u.ac.jp
  latitude: '35.716667'
  longitude: '140.65'
  university: Shinshu University
- address: 3-4-1 Kowakae
  city: Osaka
  country: Japan
  domain: kindai.ac.jp
  latitude: ''
  longitude: ''
  university: Kindai University
- address: 30, PANEPISTIMIOU STR.
  city: Athens
  country: Greece
  domain: uoa.gr
  latitude: '37.983334'
  longitude: '23.733334'
  university: National and Kapodistrian University of Athens
- address: 3141 Chestnut St.
  city: Philadelphia
  country: United States
  domain: drexel.edu
  latitude: '39.95222'
  longitude: '-75.16417'
  university: Drexel University
- address: 321 Calhoun Drive
  city: Clemson
  country: United States
  domain: clemson.edu
  latitude: '34.683334'
  longitude: '-82.8375'
  university: Clemson University
- address: "34 cours L\xE9opold, CS 25233, Nancy, 54052, France"
  city: Nancy
  country: France
  domain: univ-lorraine.fr
  latitude: '48.69211'
  longitude: '6.187756'
  university: University of Lorraine
- address: 35 Stirling Highway
  city: Perth
  country: Australia
  domain: uwa.edu.au
  latitude: '-31.95224'
  longitude: '115.8614'
  university: University of Western Australia
- address: 35, place Pey-Berland
  city: Bordeaux
  country: France
  domain: u-bordeaux.fr
  latitude: '44.84044'
  longitude: '-0.5805'
  university: University of Bordeaux
- address: 360 Huntington Ave
  city: Boston
  country: United States
  domain: northeastern.edu
  latitude: '42.358334'
  longitude: '-71.06028'
  university: Northeastern University
- address: 3663 Zhongshan Road North, Shanghai, China
  city: Shanghai
  country: China
  domain: ecnu.edu.cn
  latitude: '31.045555'
  longitude: '121.39972'
  university: East China Normal University
- address: 3737 Wascana Parkway
  city: Regina
  country: Canada
  domain: uregina.ca
  latitude: '50.45'
  longitude: '-104.61667'
  university: University of Regina
- address: 3800 Finnerty Road
  city: Victoria
  country: Canada
  domain: uvic.ca
  latitude: '48.433334'
  longitude: '-123.35'
  university: University of Victoria
- address: 4 rue Blaise Pascal
  city: Strasbourg
  country: France
  domain: unistra.fr
  latitude: '48.60038'
  longitude: '7.787355'
  university: University of Strasbourg
- address: 4000 Central Florida Blvd.
  city: Florida
  country: United States
  domain: ucf.edu
  latitude: '18.365278'
  longitude: '-66.5675'
  university: University of Central Florida
- address: 405 Hilgard Avenue
  city: Los Angeles
  country: United States
  domain: ucla.edu
  latitude: '34.052223'
  longitude: '-118.242775'
  university: University of California, Los Angeles
- address: 415 South Street
  city: Waltham
  country: United States
  domain: brandeis.edu
  latitude: '42.37639'
  longitude: '-71.236115'
  university: Brandeis University
- address: 419 Boston Ave, Dowling Hall Garage
  city: Medford
  country: United States
  domain: tufts.edu
  latitude: '42.326668'
  longitude: '-122.87444'
  university: Tufts University
- address: 420 University Boulevard
  city: Indianapolis
  country: United States
  domain: iupui.edu
  latitude: '39.768333'
  longitude: '-86.15806'
  university: "Indiana University \u2013 Purdue University Indianapolis"
- address: 4200 Fifth Avenue
  city: Pittsburgh
  country: United States
  domain: pitt.edu
  latitude: '40.440556'
  longitude: '-79.99611'
  university: University of Pittsburgh
- address: 4202 E. Fowler Avenue
  city: Florida
  country: United States
  domain: usf.edu
  latitude: '18.365278'
  longitude: '-66.5675'
  university: University of South Florida
- address: 4242 Hafez Ave.
  city: Tehran
  country: Iran
  domain: aut.ac.ir
  latitude: ''
  longitude: ''
  university: Amirkabir University of Technology
- address: 43 boulevard du 11 novembre 1918
  city: Lyon
  country: France
  domain: univ-lyon1.fr
  latitude: '45.74846'
  longitude: '4.846711'
  university: Claude Bernard University Lyon 1
- address: 43 section 4, Keelung Road
  city: Taipei
  country: China
  domain: ntust.edu.tw
  latitude: ''
  longitude: ''
  university: National Taiwan University of Science and Technology
- address: 4400 University Drive
  city: Mason
  country: United States
  domain: gmu.edu
  latitude: '39.36'
  longitude: '-84.31'
  university: George Mason University
- address: 450 Jane Stanford Way, Stanford, CA 94305, USA
  city: Stanford
  country: United States
  domain: stanford.edu
  latitude: '37.424168'
  longitude: '-122.165'
  university: Stanford University
- address: 4700 Keele Street
  city: Toronto
  country: Canada
  domain: yorku.ca
  latitude: '43.666668'
  longitude: '-79.416664'
  university: York University
- address: 4700 King Abdullah University of Science & Technology
  city: Thuwal
  country: Saudi Arabia
  domain: kaust.edu.sa
  latitude: ''
  longitude: ''
  university: King Abdullah University of Science and Technology
- address: 4800 Calhoun Road
  city: Houston
  country: United States
  domain: uh.edu
  latitude: '29.763056'
  longitude: '-95.36305'
  university: University of Houston
- address: 5 South Zhongguancun Street, Haidian District, Beijing, China
  city: Beijing
  country: China
  domain: bit.edu.cn
  latitude: '39.92889'
  longitude: '116.388336'
  university: Beijing Institute of Technology
- address: 5 university campuses in the European Metropolis of Lille (Lille - Villeneuve
    d'Ascq - Roubaix - Tourcoing), Hauts-de-France
  city: Lille
  country: France
  domain: univ-lille.fr
  latitude: '50.632973'
  longitude: '3.058585'
  university: University of Lille
- address: 50 avenue F.D. Roosevelt
  city: Brussels
  country: Belgium
  domain: ulb.ac.be
  latitude: '50.833332'
  longitude: '4.333333'
  university: "Universit\xE9 libre de Bruxelles"
- address: 50 Nanyang Avenue
  city: Singapore
  country: Singapore
  domain: ntu.edu.sg
  latitude: '1.2930557'
  longitude: '103.855835'
  university: Nanyang Technological University
- address: 50 Yonsei-ro, Seodaemun-gu
  city: Seoul
  country: South Korea
  domain: yonsei.ac.kr
  latitude: '37.5985'
  longitude: '126.9783'
  university: Yonsei University
- address: 500 S. State Street
  city: Ann Arbor
  country: United States
  domain: umich.edu
  latitude: '42.270832'
  longitude: '-83.72639'
  university: University of Michigan, Ann Arbor
- address: 5000 Forbes Avenue
  city: Pittsburgh
  country: United States
  domain: cmu.edu
  latitude: '40.440556'
  longitude: '-79.99611'
  university: Carnegie Mellon University
- address: 5115 Hampton Boulevard
  city: Norfolk
  country: United States
  domain: odu.edu
  latitude: '42.02833'
  longitude: '-97.416664'
  university: Old Dominion University
- address: 52, Ewhayeodae-gil, Seodaemun-gu
  city: Seoul
  country: South Korea
  domain: ewha.ac.kr
  latitude: '37.5985'
  longitude: '126.9783'
  university: Ewha Womans University
- address: 5200 N. Lake Road
  city: Merced
  country: United States
  domain: ucmerced.edu
  latitude: '37.302223'
  longitude: '-120.48194'
  university: University of California, Merced
- address: 5235 Rockhill Road
  city: Kansas City
  country: United States
  domain: umkc.edu
  latitude: '39.099724'
  longitude: '-94.57833'
  university: University of Missouri-Kansas City
- address: 53 Borcherd Street
  city: Potchefstroom
  country: South Africa
  domain: nwu.ac.za
  latitude: '-26.716667'
  longitude: '27.1'
  university: North-West University
- address: 55 Wellesley Street West, Auckland Central, Auckland, New Zealand
  city: Auckland
  country: New Zealand
  domain: aut.ac.nz
  latitude: '-36.86667'
  longitude: '174.76666'
  university: Auckland University of Technology
- address: 567 Baekje-daero, deokjin-gu
  city: Jeonju
  country: South Korea
  domain: jbnu.ac.kr
  latitude: ''
  longitude: ''
  university: Jeonbuk National University
- address: 5801 S. Ellis Avenue
  city: Chicago
  country: United States
  domain: uchicago.edu
  latitude: '41.85'
  longitude: '-87.65'
  university: University of Chicago
- address: 60 Rue Mazarine, 75006 Paris, France
  city: Paris
  country: France
  domain: psl.eu
  latitude: '48.86667'
  longitude: '2.333333'
  university: PSL University
- address: 601 E. John Street
  city: Urbana
  country: United States
  domain: illinois.edu
  latitude: '40.110554'
  longitude: '-88.20722'
  university: "University of Illinois at Urbana\u2013Champaign"
- address: 601 S. Morgan St.
  city: Chicago
  country: United States
  domain: uic.edu
  latitude: '41.85'
  longitude: '-87.65'
  university: University of Illinois at Chicago
- address: 610 Purdue Mall
  city: West Lafayette
  country: United States
  domain: purdue.edu
  latitude: '40.425835'
  longitude: '-86.90806'
  university: Purdue University
- address: 6100 Main St
  city: Houston
  country: United States
  domain: rice.edu
  latitude: '29.763056'
  longitude: '-95.36305'
  university: Rice University
- address: 633 Clark Street
  city: Evanston
  country: United States
  domain: northwestern.edu
  latitude: '42.04111'
  longitude: '-87.69'
  university: Northwestern University
- address: 64/13, Volodymyrska St.
  city: Shevchenko
  country: Ukraine
  domain: univ.kiev.ua
  latitude: '48.655323'
  longitude: '37.992516'
  university: Taras Shevchenko National University of Kyiv
- address: 656 W Kirby Room 4070
  city: Wayne
  country: United States
  domain: wayne.edu
  latitude: '42.281387'
  longitude: '-83.38639'
  university: Wayne State University
- address: 660 Parrington Oval
  city: Norman
  country: United States
  domain: ou.edu
  latitude: '35.2225'
  longitude: '-97.43916'
  university: University of Oklahoma, Norman
- address: 6823 Saint Charles Avenue
  city: New Orleans
  country: United States
  domain: tulane.edu
  latitude: '29.954445'
  longitude: '-90.075'
  university: Tulane University
- address: 7-9 Universitetskaya Nab.
  city: Saint Petersburg
  country: Russia
  domain: spbu.ru
  latitude: '59.894444'
  longitude: '30.264168'
  university: Saint Petersburg University
- address: 7000 Fannin Street
  city: Houston
  country: United States
  domain: uth.edu
  latitude: '29.763056'
  longitude: '-95.36305'
  university: University of Texas Health Science Center at Houston
- address: 75 Laurier Avenue East
  city: Ottawa
  country: Canada
  domain: uottawa.ca
  latitude: '45.416668'
  longitude: '-75.7'
  university: University of Ottawa
- address: 77 CHEONGAM-RO, Namgu
  city: Pohang
  country: South Korea
  domain: postech.ac.kr
  latitude: ''
  longitude: ''
  university: Pohang University of Science and Technology
- address: 77 Massachusetts Avenue
  city: Cambridge
  country: United States
  domain: mit.edu
  latitude: '42.375'
  longitude: '-71.10611'
  university: Massachusetts Institute of Technology
- address: 77 Yongbong-ro Buk-gu
  city: Gwangju
  country: South Korea
  domain: jnu.ac.kr
  latitude: ''
  longitude: ''
  university: Chonnam National University
- address: 777 Glades Road, 33431, Boca Raton, Florida, U.S.
  city: Boca Raton
  country: United States
  domain: fau.edu
  latitude: '26.358334'
  longitude: '-80.083336'
  university: Florida Atlantic University
- address: 80 Daehakro, Bukgu
  city: Daegu
  country: South Korea
  domain: knu.ac.kr
  latitude: ''
  longitude: ''
  university: Kyungpook National University
- address: 800 Dongchuan Road, Shanghai, China
  city: Shanghai
  country: China
  domain: sjtu.edu.cn
  latitude: '31.045555'
  longitude: '121.39972'
  university: Shanghai Jiao Tong University
- address: 800 Drillfield Drive
  city: Blacksburg
  country: United States
  domain: vt.edu
  latitude: '37.229443'
  longitude: '-80.41417'
  university: Virginia Tech
- address: 83 Somerset Street
  city: Brunswick
  country: United States
  domain: newbrunswick.rutgers.edu
  latitude: '43.914444'
  longitude: '-69.965836'
  university: Rutgers, The State University of New Jersey - New Brunswick
- address: 83 Somerset Street
  city: New Brunswick
  country: United States
  domain: rutgers.edu
  latitude: '40.48611'
  longitude: '-74.452225'
  university: Rutgers University
- address: 83 Tat Chee Avenue
  city: Hong Kong
  country: China
  domain: cityu.edu.hk
  latitude: ''
  longitude: ''
  university: City University of Hong Kong
- address: 84, Heukseok-ro, Dongjak-gu
  city: Seoul
  country: South Korea
  domain: cau.ac.kr
  latitude: '37.5985'
  longitude: '126.9783'
  university: Chung-Ang University
- address: 85 S Prospect St.
  city: Prospect
  country: United States
  domain: uvm.edu
  latitude: '41.502224'
  longitude: '-72.979164'
  university: University of Vermont
- address: 866 Yuhangtang Road, Zhejiang, China
  city: Hangzhou
  country: China
  domain: zju.edu.cn
  latitude: '30.29365'
  longitude: '120.16142'
  university: Zhejiang University
- address: 875 Perimeter Drive MS 2282
  city: Moscow
  country: United States
  domain: uidaho.edu
  latitude: '46.7325'
  longitude: '-116.99917'
  university: University of Idaho
- address: 9, Institutskiy per.
  city: Moscow
  country: Russia
  domain: mipt.ru
  latitude: '55.75222'
  longitude: '37.615555'
  university: Moscow Institute of Physics and Technology
- address: 90 South Street
  city: Perth
  country: Australia
  domain: murdoch.edu.au
  latitude: '-31.95224'
  longitude: '115.8614'
  university: Murdoch University
- address: 900 Gajwa-Dong
  city: Jinju
  country: South Korea
  domain: gnu.ac.kr
  latitude: ''
  longitude: ''
  university: Gyeongsang National University
- address: 900 South Crouse Avenue
  city: Syracuse
  country: United States
  domain: syracuse.edu
  latitude: '43.048054'
  longitude: '-76.14778'
  university: Syracuse University
- address: 900 University Ave.
  city: Riverside
  country: United States
  domain: ucr.edu
  latitude: '33.953335'
  longitude: '-117.39528'
  university: University of California, Riverside
- address: 914 Broadway
  city: Boulder
  country: United States
  domain: colorado.edu
  latitude: '40.015'
  longitude: '-105.27'
  university: University of Colorado Boulder
- address: 9500 Gilman Drive
  city: San Diego
  country: United States
  domain: ucsd.edu
  latitude: '32.71528'
  longitude: '-117.15639'
  university: University of California, San Diego
- address: 955 Oliver Road, Thunder Bay, Ontario, Canada P7B 5E1, Thunder Bay ; Orillia,
    Ontario, Canada
  city: Orillia
  country: Canada
  domain: lakeheadu.ca
  latitude: '44.6'
  longitude: '-79.416664'
  university: Lakehead University
- address: 987815 Nebraska Medical Center
  city: Omaha
  country: United States
  domain: unmc.edu
  latitude: '41.25861'
  longitude: '-95.9375'
  university: University of Nebraska Medical Center
- address: 99 Shangda Road, Shanghai, China
  city: Shanghai
  country: China
  domain: shu.edu.cn
  latitude: '31.045555'
  longitude: '121.39972'
  university: Shanghai University
- address: 99 University Avenue
  city: Kingston
  country: Canada
  domain: queensu.ca
  latitude: '44.233334'
  longitude: '-76.48333'
  university: Queen's University
- address: 999 Phuttamonthon 4 Road
  city: Bangkok
  country: Thailand
  domain: mahidol.ac.th
  latitude: '13.753979'
  longitude: '100.50144'
  university: Mahidol University
- address: Abdullah Alsulaiman St.
  city: Jeddah
  country: Saudi Arabia
  domain: kau.edu.sa
  latitude: ''
  longitude: ''
  university: King Abdulaziz University
- address: Abu Dhabi, United Arab Emirates
  city: Abu Dhabi
  country: United Arab Emirates
  domain: ku.ac.ae
  latitude: '24.466667'
  longitude: '54.36667'
  university: Khalifa University
- address: Acton
  city: Canberra
  country: Australia
  domain: anu.edu.au
  latitude: '-35.27603'
  longitude: '149.13435'
  university: Australian National University
- address: Adelphi Street
  city: Preston
  country: United Kingdom
  domain: uclan.ac.uk
  latitude: '53.766666'
  longitude: '-2.716667'
  university: University of Central Lancashire
- address: Airport Road, King Khalid International Airport, Riyadh 11564, Saudi Arabia
  city: Riyadh
  country: Saudi Arabia
  domain: pnu.edu.sa
  latitude: '24.653664'
  longitude: '46.71522'
  university: Princess Nourah bint Abdulrahman University
- address: Al Taif Road, Mecca 24 382, Saudi Arabia
  city: Mecca
  country: Saudi Arabia
  domain: uqu.edu.sa
  latitude: '21.426666'
  longitude: '39.82611'
  university: Umm Al-Qura University
- address: al. Mickiewicza 30
  city: "Krak\xF3w"
  country: Poland
  domain: agh.edu.pl
  latitude: ''
  longitude: ''
  university: AGH University of Science and Technology
- address: "Alameda da Universidade, Cidade Universit\xE1ria"
  city: Lisbon
  country: Portugal
  domain: ulisboa.pt
  latitude: '38.716667'
  longitude: '-9.133333'
  university: University of Lisbon
- address: "Albert-Ludwigs-Universit\xE4t Freiburg, Freiburg im Breisgau, Germany"
  city: Freiburg
  country: Germany
  domain: uni-freiburg.de
  latitude: '48'
  longitude: '7.85'
  university: University of Freiburg
- address: "Altenberger Stra\xDFe 69"
  city: Linz
  country: Austria
  domain: jku.at
  latitude: '48.3'
  longitude: '14.3'
  university: Johannes Kepler University Linz
- address: Amherst, Massachusetts, United States
  city: Amherst
  country: United States
  domain: amherst.edu
  latitude: '42.86139'
  longitude: '-71.62583'
  university: Amherst College
- address: Ancona, Italy
  city: Ancona
  country: Italy
  domain: univpm.it
  latitude: '43.63333'
  longitude: '13.5'
  university: Marche Polytechnic University
- address: Ankara, Turkey
  city: Ankara
  country: Turkey
  domain: ankara.edu.tr
  latitude: '39.91165'
  longitude: '32.840305'
  university: Ankara University
- address: Anker Engelunds Vej 1
  city: Lyngby
  country: Denmark
  domain: dtu.dk
  latitude: ''
  longitude: ''
  university: Technical University of Denmark
- address: Apdo. 99
  city: Alicante
  country: Spain
  domain: ua.es
  latitude: ''
  longitude: ''
  university: University of Alicante
- address: Arcisstrasse 21
  city: Munich
  country: Germany
  domain: tum.de
  latitude: '48.15'
  longitude: '11.5833'
  university: Technical University of Munich
- address: "\xC5s, Norway"
  city: "\xC5s"
  country: Norway
  domain: nmbu.no
  latitude: '59.666668'
  longitude: '10.8'
  university: Norwegian University of Life Sciences
- address: Ash Sharqiyah, Egypt
  city: Zagazig
  country: Egypt
  domain: zu.edu.eg
  latitude: ''
  longitude: ''
  university: Zagazig University
- address: "Atat\xFCrk University Campus"
  city: Erzurum
  country: Turkey
  domain: atauni.edu.tr
  latitude: '39.90861'
  longitude: '41.276943'
  university: "Atat\xFCrk University"
- address: Auburn University
  city: Auburn
  country: United States
  domain: auburn.edu
  latitude: '32.609722'
  longitude: '-85.480835'
  university: Auburn University
- address: Augsburg, Bavaria, Germany
  city: Augsburg
  country: Germany
  domain: uni-augsburg.de
  latitude: '48.36667'
  longitude: '10.883333'
  university: University of Augsburg
- address: Augusta, Georgia, U.S.
  city: Augusta
  country: United States
  domain: augusta.edu
  latitude: '44.310555'
  longitude: '-69.78'
  university: Augusta University
- address: "Av. Blasco Ib\xE1\xF1ez, 13"
  city: Valencia
  country: Spain
  domain: uv.es
  latitude: '39.466667'
  longitude: '-0.366667'
  university: University of Valencia
- address: Av. de l'Europe 20
  city: Fribourg
  country: Switzerland
  domain: unifr.ch
  latitude: '46.79572'
  longitude: '7.154748'
  university: University of Fribourg
- address: "Av. de Vicent Sos Baynat, s/n, Castell\xF3 de la Plana, 12071, Spain"
  city: "Castell\xF3 de la Plana"
  country: Spain
  domain: uji.es
  latitude: ''
  longitude: ''
  university: Jaume I University
- address: Av. Los Castros s/n
  city: Santander
  country: Spain
  domain: unican.es
  latitude: '43.46472'
  longitude: '-3.804444'
  university: University of Cantabria
- address: "Av. Luis Enrique Erro s/n, Unidad Profesional Adolfo L\xF3pez Mateos"
  city: Mexico
  country: Mexico
  domain: ipn.mx
  latitude: '19.434168'
  longitude: '-99.13861'
  university: National Polytechnic Institute
- address: AV. PAULO GAMA, 110
  city: Porto Alegre
  country: Brazil
  domain: ufrgs.br
  latitude: '-30.033333'
  longitude: '-51.2'
  university: Federal University of Rio Grande do Sul
- address: "Av. Peter Henry Rolfs, s/n, Campus Universit\xE1rio"
  city: "Vi\xE7osa"
  country: Brazil
  domain: ufv.br
  latitude: '-20.75'
  longitude: '-42.88333'
  university: "Federal University of Vi\xE7osa"
- address: "Avd. Medina Azahara , n\xBA 5"
  city: "C\xF3rdoba"
  country: Spain
  domain: uco.es
  latitude: '37.89155'
  longitude: '-4.772748'
  university: "University of C\xF3rdoba, Spain"
- address: Avda. Libertador Bernardo OHiggins 340
  city: Santiago
  country: Chile
  domain: uc.cl
  latitude: '-33.45'
  longitude: '-70.666664'
  university: Pontifical Catholic University of Chile
- address: "Avenida Ant\xF4nio Carlos 6627"
  city: Belo Horizonte
  country: Brazil
  domain: ufmg.br
  latitude: '-19.916668'
  longitude: '-43.933334'
  university: Federal University of Minas Gerais
- address: "Avenida Cervantes n\xBA2. Edificio Rectorado."
  city: "M\xE1laga"
  country: Spain
  domain: uma.es
  latitude: '36.726665'
  longitude: '-4.434802'
  university: "University of M\xE1laga"
- address: Avenida da Universidade, Taipa
  city: Macau
  country: China
  domain: umac.mo
  latitude: ''
  longitude: ''
  university: University of Macau
- address: "Avenida de S\xE9neca, 2"
  city: Madrid
  country: Spain
  domain: ucm.es
  latitude: '40.408566'
  longitude: '-3.69222'
  university: Complutense University of Madrid
- address: "Avenida Libertador Bernardo O\xB4higgins 1058"
  city: Santiago
  country: Chile
  domain: uchile.cl
  latitude: '-33.45'
  longitude: '-70.666664'
  university: University of Chile
- address: Avenida Professor Moraes Rego, 1235
  city: Recife
  country: Brazil
  domain: ufpe.br
  latitude: '-8.05'
  longitude: '-34.9'
  university: Federal University of Pernambuco
- address: Avenida Sena Madureira, 1500
  city: "S\xE3o Paulo"
  country: Brazil
  domain: unifesp.br
  latitude: '-23.473293'
  longitude: '-46.665802'
  university: "Federal University of S\xE3o Paulo"
- address: Avenida Teniente Flomesta, 5
  city: Murcia
  country: Spain
  domain: um.es
  latitude: '37.98704'
  longitude: '-1.130042'
  university: University of Murcia
- address: Avenida Wai Long,Taipa
  city: Macau
  country: China
  domain: must.edu.mo
  latitude: ''
  longitude: ''
  university: Macau University of Science and Technology
- address: Ayacucho 1245
  city: Buenos Aires
  country: Argentina
  domain: uba.ar
  latitude: ''
  longitude: ''
  university: University of Buenos Aires
- address: "Ayaza\u011Fa Campus Rectorate Maslak"
  city: Istanbul
  country: Turkey
  domain: itu.edu.tr
  latitude: '41.018612'
  longitude: '28.964722'
  university: Istanbul Technical University
- address: Azadi Street
  city: Tehran
  country: Iran
  domain: sharif.ir
  latitude: ''
  longitude: ''
  university: Sharif University of Technology
- address: "Badajoz, C\xE1ceres, M\xE9rida, Plasencia, Spain"
  city: Badajoz
  country: Spain
  domain: unex.es
  latitude: '38.877895'
  longitude: '-6.970613'
  university: University of Extremadura
- address: Banchi di Sotto, 55
  city: Siena
  country: Italy
  domain: unisi.it
  latitude: '43.316666'
  longitude: '11.35'
  university: University of Siena
- address: Barrio Sarriena, s/n
  city: Bilbao
  country: Spain
  domain: ehu.eus
  latitude: '43.260918'
  longitude: '-2.938764'
  university: University of the Basque Country
- address: Baylor College of Medicine, One Baylor Plaza, Houston, Texas 77030-3498,
    United States of America
  city: Houston
  country: United States
  domain: bcm.edu
  latitude: '29.763056'
  longitude: '-95.36305'
  university: Baylor College of Medicine
- address: Beibei District, Chongqing, China
  city: Beibei
  country: China
  domain: swu.edu.cn
  latitude: '29.825556'
  longitude: '106.43389'
  university: Southwest University
- address: BeiHang University XueYuan Road No.37, HaiDian District, Beijing, China
  city: Beijing
  country: China
  domain: buaa.edu.cn
  latitude: '39.92889'
  longitude: '116.388336'
  university: Beihang University
- address: Belfield
  city: Dublin
  country: Ireland
  domain: ucd.ie
  latitude: '53.333057'
  longitude: '-6.248889'
  university: University College Dublin
- address: Ben-Gurion Ave.
  city: Beersheba
  country: Israel
  domain: bgu.ac.il
  latitude: ''
  longitude: ''
  university: Ben-Gurion University of the Negev
- address: "Bergische Universit\xE4t Wuppertal, Gaussstrasse 20, 42119 Wuppertal,\
    \ Germany"
  city: Wuppertal
  country: Germany
  domain: uni-wuppertal.de
  latitude: '51.266666'
  longitude: '7.183333'
  university: University of Wuppertal
- address: "Bibliothekstra\xDFe 1"
  city: Bremen
  country: Germany
  domain: uni-bremen.de
  latitude: '53.083332'
  longitude: '8.8'
  university: University of Bremen
- address: "Biegenstra\xDFe 10"
  city: Marburg
  country: Germany
  domain: uni-marburg.de
  latitude: '50.816666'
  longitude: '8.766667'
  university: University of Marburg
- address: Bliss Street
  city: Beirut
  country: Lebanon
  domain: aub.edu.lb
  latitude: '33.871944'
  longitude: '35.509724'
  university: American University of Beirut
- address: Bolzano - Bozen Bressanone Bruneck, Italy
  city: Bolzano
  country: Italy
  domain: unibz.it
  latitude: '46.516666'
  longitude: '11.366667'
  university: Free University of Bozen-Bolzano
- address: Boston College, 140 Commonwealth Avenue, Chestnut Hill, Massachusetts 02467,
    United States of America
  city: Boston
  country: United States
  domain: bc.edu
  latitude: '42.358334'
  longitude: '-71.06028'
  university: Boston College
- address: Box 870100
  city: Tuscaloosa
  country: United States
  domain: ua.edu
  latitude: '33.20972'
  longitude: '-87.56917'
  university: University of Alabama - Tuscaloosa
- address: "Bras\xEDlia, Federal District, Brazil"
  city: "Bras\xEDlia"
  country: Brazil
  domain: unb.br
  latitude: '-15.783333'
  longitude: '-47.916668'
  university: "University of Bras\xEDlia"
- address: Brigham Young University, Provo, Utah 84602-1001, United States of America
  city: Provo
  country: United States
  domain: byu.edu
  latitude: '40.23389'
  longitude: '-111.657776'
  university: Brigham Young University
- address: "Brinellv\xE4gen 8"
  city: Stockholm
  country: Sweden
  domain: kth.se
  latitude: '59.333332'
  longitude: '18.05'
  university: KTH Royal Institute of Technology
- address: Brisbane, Queensland, Australia
  city: Brisbane
  country: Australia
  domain: acu.edu.au
  latitude: '-27.47101'
  longitude: '153.02429'
  university: Australian Catholic University
- address: Brown University, 1, Prospect Street, Providence, Rhode Island 02912-9127,
    United States of America
  city: Providence
  country: United States
  domain: brown.edu
  latitude: '41.82389'
  longitude: '-71.41333'
  university: Brown University
- address: Brownlow Hill
  city: Liverpool
  country: United Kingdom
  domain: liverpool.ac.uk
  latitude: '53.416668'
  longitude: '-3'
  university: University of Liverpool
- address: Budapest, Hungary
  city: Budapest
  country: Hungary
  domain: semmelweis.hu
  latitude: '47.5'
  longitude: '19.083332'
  university: Semmelweis University
- address: C V Raman Avenue
  city: Bangalore
  country: India
  domain: iisc.ac.in
  latitude: '12.983333'
  longitude: '77.583336'
  university: Indian Institute of Science
- address: C.P. 6128, succursale Centre-ville
  city: Montreal
  country: Canada
  domain: umontreal.ca
  latitude: '45.5'
  longitude: '-73.583336'
  university: University of Montreal
- address: C.so Duca degli Abruzzi, 24
  city: Turin
  country: Italy
  domain: polito.it
  latitude: '45.05'
  longitude: '7.666667'
  university: Polytechnic University of Turin
- address: C/ Jordi Girona, 31
  city: Girona
  country: Spain
  domain: upc.edu
  latitude: '41.984444'
  longitude: '2.821111'
  university: Technical University of Catalonia (UPC)
- address: C/ Madrid, 126 (Getafe)
  city: Madrid
  country: Spain
  domain: uc3m.es
  latitude: '40.408566'
  longitude: '-3.69222'
  university: Carlos III University of Madrid
- address: cailun road 1200, Shanghai, China
  city: Shanghai
  country: China
  domain: shutcm.edu.cn
  latitude: '31.045555'
  longitude: '121.39972'
  university: Shanghai University of Traditional Chinese Medicine
- address: Cairo, Egypt
  city: Cairo
  country: Egypt
  domain: asu.edu.eg
  latitude: '30.05'
  longitude: '31.25'
  university: Ain Shams University
- address: Calle Ramiro de Maeztu, 7
  city: Madrid
  country: Spain
  domain: upm.es
  latitude: '40.408566'
  longitude: '-3.69222'
  university: Polytechnic University of Madrid
- address: Calle San Fernando, 4
  city: Seville
  country: Spain
  domain: us.es
  latitude: ''
  longitude: ''
  university: University of Seville
- address: "Calle San Francisco n\xBA 3"
  city: Oviedo
  country: Spain
  domain: uniovi.es
  latitude: '43.363224'
  longitude: '-5.853128'
  university: University of Oviedo
- address: Camino de Vera, s/n
  city: Valencia
  country: Spain
  domain: upv.es
  latitude: '39.466667'
  longitude: '-0.366667'
  university: Polytechnic University of Valencia
- address: Campus de las Lagunillas, Edif. B-1
  city: "Ja\xE9n"
  country: Spain
  domain: ujaen.es
  latitude: '37.772404'
  longitude: '-3.79013'
  university: "University of Ja\xE9n"
- address: "Campus Universit\xE1rio de Santiago"
  city: Aveiro
  country: Portugal
  domain: ua.pt
  latitude: '40.644268'
  longitude: '-8.645535'
  university: University of Aveiro
- address: Campus Valla
  city: "Link\xF6ping"
  country: Sweden
  domain: liu.se
  latitude: '58.416668'
  longitude: '15.616667'
  university: "Link\xF6ping University"
- address: Campusvej 55
  city: Odense
  country: Denmark
  domain: sdu.dk
  latitude: '55.393475'
  longitude: '10.394935'
  university: University of Southern Denmark
- address: Cardiff University
  city: Cardiff
  country: United Kingdom
  domain: cardiff.ac.uk
  latitude: '51.5'
  longitude: '-3.2'
  university: Cardiff University
- address: Carleton University, 1125 Colonel By Drive, Ottawa, Ontario K1S 5B6, Canada
  city: Ottawa
  country: Canada
  domain: carleton.ca
  latitude: '45.416668'
  longitude: '-75.7'
  university: Carleton University
- address: Carrera 45 No. 26 - 85
  city: Colombia
  country: Colombia
  domain: unal.edu.co
  latitude: '3.376064'
  longitude: '-74.8015'
  university: National University of Colombia
- address: Caserta, Naples, provinces of Caserta and Naples, Italy
  city: Caserta
  country: Italy
  domain: unicampania.it
  latitude: '41.066666'
  longitude: '14.333333'
  university: University of Campania Luigi Vanvitelli
- address: Castletroy
  city: Limerick
  country: Ireland
  domain: ul.ie
  latitude: '52.664722'
  longitude: '-8.623055'
  university: University of Limerick
- address: Chalmersplatsen 4
  city: Gothenburg
  country: Sweden
  domain: chalmers.se
  latitude: ''
  longitude: ''
  university: Chalmers University of Technology
- address: Changzhou, Jiangsu, China
  city: Changzhou
  country: China
  domain: cczu.edu.cn
  latitude: '31.783333'
  longitude: '119.96667'
  university: Changzhou University
- address: Charleston, South Carolina, USA
  city: Carolina
  country: United States
  domain: musc.edu
  latitude: '18.382778'
  longitude: '-65.95778'
  university: Medical University of South Carolina
- address: Cheongju, South Korea
  city: Cheongju
  country: South Korea
  domain: chungbuk.ac.kr
  latitude: ''
  longitude: ''
  university: Chungbuk National University
- address: Chongqing, China
  city: Chongqing
  country: China
  domain: cqmu.edu.cn
  latitude: '29.562778'
  longitude: '106.55278'
  university: Chongqing Medical University
- address: Chongqing, China
  city: Chongqing
  country: China
  domain: tmmu.edu.cn
  latitude: '29.562778'
  longitude: '106.55278'
  university: Army Medical University
- address: "Christian-Albrechts-Universit\xE4t zu Kiel, Christian-Albrechts-Platz\
    \ 4, 24098 Kiel, Germany"
  city: Kiel
  country: Germany
  domain: uni-kiel.de
  latitude: '54.333332'
  longitude: '10.133333'
  university: Kiel University
- address: Chuncheon and Samcheok, Gangwon, South Korea
  city: Chuncheon
  country: South Korea
  domain: kangwon.ac.kr
  latitude: ''
  longitude: ''
  university: Kangwon National University
- address: Chuncheon, South Korea
  city: Chuncheon
  country: South Korea
  domain: hallym.ac.kr
  latitude: ''
  longitude: ''
  university: Hallym University
- address: Churchill Avenue
  city: Hobart
  country: Australia
  domain: utas.edu.au
  latitude: '-42.88321'
  longitude: '147.33167'
  university: University of Tasmania
- address: "Cidade Universit\xE1ria Zeferino Vaz - Bar\xE3o Geraldo, Campinas - SP,\
    \ 13083-970, Brazil"
  city: Campinas
  country: Brazil
  domain: unicamp.br
  latitude: '-22.9'
  longitude: '-47.083332'
  university: University of Campinas
- address: City University of New York City College, 138 Convent Avenue, New York,
    N.Y. 10031-9198, United States of America
  city: York
  country: United States
  domain: ccny.cuny.edu
  latitude: '39.9625'
  longitude: '-76.72806'
  university: City College of New York
- address: "Ciudad Real, Castilla\u2013La Mancha, Spain"
  city: Ciudad Real
  country: Spain
  domain: uclm.es
  latitude: '38.98626'
  longitude: '-3.92907'
  university: "University of Castilla\u2013La Mancha"
- address: Ciudad Universidtaria de Cantoblanco. C/ Einstein 3
  city: Madrid
  country: Spain
  domain: uam.es
  latitude: '40.408566'
  longitude: '-3.69222'
  university: Autonomous University of Madrid
- address: "Ciudad Universitaria, M\xE9xico, D.F. C.P. 04510"
  city: Mexico
  country: Mexico
  domain: unam.mx
  latitude: '19.434168'
  longitude: '-99.13861'
  university: National Autonomous University of Mexico
- address: Claverton Down
  city: Bath
  country: United Kingdom
  domain: bath.ac.uk
  latitude: '51.379444'
  longitude: '-2.365556'
  university: University of Bath
- address: College Gate
  city: St Andrews
  country: United Kingdom
  domain: st-andrews.ac.uk
  latitude: ''
  longitude: ''
  university: University of St Andrews
- address: College Green
  city: Dublin
  country: Ireland
  domain: tcd.ie
  latitude: '53.333057'
  longitude: '-6.248889'
  university: Trinity College Dublin
- address: College Lane
  city: Hatfield
  country: United Kingdom
  domain: herts.ac.uk
  latitude: '51.766666'
  longitude: '-0.166667'
  university: University of Hertfordshire
- address: College Road
  city: Bangor
  country: United Kingdom
  domain: bangor.ac.uk
  latitude: '54.65'
  longitude: '-5.7'
  university: Bangor University
- address: College Road
  city: Cranfield
  country: United Kingdom
  domain: cranfield.ac.uk
  latitude: ''
  longitude: ''
  university: Cranfield University
- address: Collins Avenue
  city: Dublin
  country: Ireland
  domain: dcu.ie
  latitude: '53.333057'
  longitude: '-6.248889'
  university: Dublin City University
- address: Colorado State University, Fort Collins, Colorado 80523-0015, United States
    of America
  city: Fort Collins
  country: United States
  domain: colostate.edu
  latitude: '40.585278'
  longitude: '-105.083885'
  university: Colorado State University
- address: "C\xF3rdoba, C\xF3rdoba Province, Argentina"
  city: "C\xF3rdoba"
  country: Argentina
  domain: unc.edu.ar
  latitude: ''
  longitude: ''
  university: "National University of C\xF3rdoba"
- address: Cornell University, Ithaca, N.Y. 14853-0001, United States of America
  city: Ithaca
  country: United States
  domain: cornell.edu
  latitude: '42.440556'
  longitude: '-76.49694'
  university: Cornell University
- address: Cottingham Road
  city: Hull
  country: United Kingdom
  domain: hull.ac.uk
  latitude: ''
  longitude: ''
  university: University of Hull
- address: Ctra. Valldemossa km 7.5
  city: Palma
  country: Spain
  domain: uib.eu
  latitude: '39.574337'
  longitude: '2.655222'
  university: University of the Balearic Islands
- address: Cuesta del Hospicio, s/n
  city: Granada
  country: Spain
  domain: ugr.es
  latitude: '37.178352'
  longitude: '-3.599201'
  university: University of Granada
- address: Curitiba, PR, Brazil
  city: Curitiba
  country: Brazil
  domain: ufpr.br
  latitude: '-25.416668'
  longitude: '-49.25'
  university: "Federal University of Paran\xE1"
- address: Dalian, Liaoning, People's Republic of China
  city: Dalian
  country: China
  domain: dlmu.edu.cn
  latitude: '38.912224'
  longitude: '121.60222'
  university: Dalian Maritime University
- address: De Boelelaan 1105
  city: Amsterdam
  country: Netherlands
  domain: vu.nl
  latitude: '52.35'
  longitude: '4.916667'
  university: VU Amsterdam
- address: De Rondom 70
  city: Eindhoven
  country: Netherlands
  domain: tue.nl
  latitude: '51.45'
  longitude: '5.466667'
  university: Eindhoven University of Technology
- address: Dijon, Bourgogne, France
  city: Dijon
  country: France
  domain: u-bourgogne.fr
  latitude: '47.316666'
  longitude: '5.016667'
  university: University of Burgundy
- address: Domstrasse 11
  city: Greifswald
  country: Germany
  domain: uni-greifswald.de
  latitude: '54.1'
  longitude: '13.383333'
  university: University of Greifswald
- address: Drake Circus
  city: Plymouth
  country: United Kingdom
  domain: plymouth.ac.uk
  latitude: '50.39639'
  longitude: '-4.138611'
  university: University of Plymouth
- address: Drienerlolaan 5
  city: Enschede
  country: Netherlands
  domain: utwente.nl
  latitude: '52.219517'
  longitude: '6.891235'
  university: University of Twente
- address: "Dugonics t\xE9r 13."
  city: Szeged
  country: Hungary
  domain: u-szeged.hu
  latitude: '46.25'
  longitude: '20.166668'
  university: University of Szeged
- address: Duke University, 207 Allen Building, Box 90001, Durham, North Carolina
    27708-0001, United States of America
  city: Durham
  country: United States
  domain: duke.edu
  latitude: '35.99389'
  longitude: '-78.89889'
  university: Duke University
- address: "Ecole Polytechnique F\xE9d\xE9rale de Lausanne, CH 1015 Lausanne Vaud,\
    \ Switzerland"
  city: Lausanne
  country: Switzerland
  domain: epfl.ch
  latitude: '46.533333'
  longitude: '6.666667'
  university: "\xC9cole Polytechnique F\xE9d\xE9rale de Lausanne"
- address: Edgbaston Park Road
  city: Birmingham
  country: United Kingdom
  domain: birmingham.ac.uk
  latitude: '52.466667'
  longitude: '-1.916667'
  university: University of Birmingham
- address: Edifici A. Campus UAB Bellaterra
  city: Barcelona
  country: Spain
  domain: uab.cat
  latitude: '41.398373'
  longitude: '2.1741'
  university: Autonomous University of Barcelona
- address: Edificio Central
  city: Pamplona
  country: Spain
  domain: unav.edu
  latitude: '42.814075'
  longitude: '-1.641153'
  university: University of Navarra
- address: Egham Hill
  city: London
  country: United Kingdom
  domain: royalholloway.ac.uk
  latitude: '51.514126'
  longitude: '-0.093689'
  university: Royal Holloway, University of London
- address: "Egyetem t\xE9r 1-3."
  city: Budapest
  country: Hungary
  domain: elte.hu
  latitude: '47.5'
  longitude: '19.083332'
  university: "E\xF6tv\xF6s Lor\xE1nd University"
- address: El Paso, Texas, U.S.
  city: El Paso
  country: United States
  domain: utep.edu
  latitude: '31.758612'
  longitude: '-106.48639'
  university: University of Texas at El Paso
- address: El-Guish Road, El-Shatby
  city: Alexandria
  country: Egypt
  domain: alexu.edu.eg
  latitude: '31.198055'
  longitude: '29.919167'
  university: Alexandria University
- address: Elgomhouria Street
  city: Mansoura
  country: Egypt
  domain: mans.edu.eg
  latitude: ''
  longitude: ''
  university: Mansoura University
- address: Enghelab Avenue
  city: Tehran
  country: Iran
  domain: ut.ac.ir
  latitude: ''
  longitude: ''
  university: University of Tehran
- address: Epinal Way
  city: Loughborough
  country: United Kingdom
  domain: lboro.ac.uk
  latitude: '52.766666'
  longitude: '-1.2'
  university: Loughborough University
- address: Erasmus Universiteit Rotterdam, Postbus 1738, Burgemeester Oudlaan 50,
    3000 DR Rotterdam, Netherlands
  city: Rotterdam
  country: Netherlands
  domain: eur.nl
  latitude: '51.916668'
  longitude: '4.5'
  university: Erasmus University Rotterdam
- address: Esch-sur-Alzette, Luxembourg
  city: Luxemburg
  country: Luxembourg
  domain: uni.lu
  latitude: '49.611668'
  longitude: '6.13'
  university: University of Luxembourg
- address: Escorxador, s/n
  city: Tarragona
  country: Spain
  domain: urv.cat
  latitude: '41.11667'
  longitude: '1.25'
  university: Rovira i Virgili University
- address: "Florian\xF3polis, Santa Catarina, Brazil"
  city: "Florian\xF3polis"
  country: Brazil
  domain: ufsc.br
  latitude: '-27.583332'
  longitude: '-48.566666'
  university: Federal University of Santa Catarina
- address: Florida State University, Tallahassee, Florida 32306-1037, United States
    of America
  city: Florida
  country: United States
  domain: fsu.edu
  latitude: '18.365278'
  longitude: '-66.5675'
  university: Florida State University
- address: "Fortaleza, Cear\xE1, Brazil"
  city: Fortaleza
  country: Brazil
  domain: ufc.br
  latitude: '-3.316667'
  longitude: '-41.416668'
  university: "Federal University of Cear\xE1"
- address: Fredrik Bajers Vej 5
  city: Aalborg
  country: Denmark
  domain: aau.dk
  latitude: '57.0355'
  longitude: '9.941163'
  university: Aalborg University
- address: Furo-cho, Chikusa-ku
  city: Nagoya
  country: Japan
  domain: nagoya-u.ac.jp
  latitude: '35.1802'
  longitude: '136.90674'
  university: Nagoya University
- address: "F\xFCrstengraben 1"
  city: Jena
  country: Germany
  domain: uni-jena.de
  latitude: '50.933334'
  longitude: '11.583333'
  university: Friedrich Schiller University Jena
- address: Fuzhou, Fujian, China
  city: Fuzhou
  country: China
  domain: fafu.edu.cn
  latitude: '26.06139'
  longitude: '119.306114'
  university: Fujian Agriculture and Forestry University
- address: Fuzhou, Fujian, China
  city: Fuzhou
  country: China
  domain: fjmu.edu.cn
  latitude: '26.06139'
  longitude: '119.306114'
  university: Fujian Medical University
- address: Gabriela Narutowicza 11/12
  city: "Gda\u0144sk"
  country: Poland
  domain: pg.edu.pl
  latitude: ''
  longitude: ''
  university: "Gda\u0144sk University of Technology"
- address: "Gagarina 11, 87-100, Toru\u0144, Poland"
  city: "Toru\u0144"
  country: Poland
  domain: umk.pl
  latitude: ''
  longitude: ''
  university: Nicolaus Copernicus University
- address: Gallos University Campus
  city: Rethymno
  country: Greece
  domain: uoc.gr
  latitude: ''
  longitude: ''
  university: University of Crete
- address: George Bush Drive
  city: College Station
  country: United States
  domain: tamu.edu
  latitude: '30.627777'
  longitude: '-96.33417'
  university: Texas A&M University, College Station
- address: Georgetown University, 37th and O Street, N.W., Washington, D.C. 20057-1947,
    United States of America
  city: Washington
  country: United States
  domain: georgetown.edu
  latitude: '38.895'
  longitude: '-77.03667'
  university: Georgetown University
- address: Geschwister-Scholl-Platz
  city: "T\xFCbingen"
  country: Germany
  domain: uni-tuebingen.de
  latitude: '48.533333'
  longitude: '9.05'
  university: "University of T\xFCbingen"
- address: Geschwister-Scholl-Platz 1
  city: Munich
  country: Germany
  domain: lmu.de
  latitude: '48.15'
  longitude: '11.5833'
  university: University of Munich
- address: Girona, Catalonia, Spain
  city: Girona
  country: Spain
  domain: udg.edu
  latitude: '41.984444'
  longitude: '2.821111'
  university: University of Girona
- address: "Goi\xE2nia (Headquarters), Catal\xE3o Jata\xED and Cidade de Goi\xE1s,\
    \ Goi\xE1s, Brazil"
  city: "Goi\xE2nia"
  country: Brazil
  domain: ufg.br
  latitude: '-16.666668'
  longitude: '-49.266666'
  university: "Federal University of Goi\xE1s"
- address: "Go\u0142\u0119bia 24"
  city: "Krak\xF3w"
  country: Poland
  domain: uj.edu.pl
  latitude: ''
  longitude: ''
  university: Jagiellonian University
- address: Gower Street
  city: London
  country: United Kingdom
  domain: ucl.ac.uk
  latitude: '51.514126'
  longitude: '-0.093689'
  university: University College London
- address: GPO Box 2100
  city: Flinders
  country: Australia
  domain: flinders.edu.au
  latitude: '-32.79924'
  longitude: '134.2116'
  university: Flinders University
- address: GPO Box 2471
  city: Adelaide
  country: Australia
  domain: unisa.edu.au
  latitude: '-34.92866'
  longitude: '138.59863'
  university: University of South Australia
- address: Grabengasse 1
  city: Heidelberg
  country: Germany
  domain: uni-heidelberg.de
  latitude: '49.416668'
  longitude: '8.7'
  university: Heidelberg University
- address: Gran Via de les Corts Catalanes, 585
  city: Barcelona
  country: Spain
  domain: ub.edu
  latitude: '41.398373'
  longitude: '2.1741'
  university: University of Barcelona
- address: Gregor Mendel-Str. 33
  city: Vienna
  country: Austria
  domain: boku.ac.at
  latitude: '48.2'
  longitude: '16.366667'
  university: University of Natural Resources and Life Sciences, Vienna
- address: GuanghuaJie Road No.55, QingYang District, Sichuan, People's Republic of
    China
  city: Chengdu
  country: China
  domain: swufe.edu.cn
  latitude: '30.666668'
  longitude: '104.066666'
  university: Southwestern University of Finance and Economics
- address: Guangzhou, Guangdong, China
  city: Guangzhou
  country: China
  domain: scau.edu.cn
  latitude: '23.116667'
  longitude: '113.25'
  university: South China Agricultural University
- address: Guangzhou, Guangdong, People's Republic of China
  city: Guangzhou
  country: China
  domain: gdut.edu.cn
  latitude: '23.116667'
  longitude: '113.25'
  university: Guangdong University of Technology
- address: Guangzhou, Guangdong, People's Republic of China
  city: Guangzhou
  country: China
  domain: gzhu.edu.cn
  latitude: '23.116667'
  longitude: '113.25'
  university: Guangzhou University
- address: Guangzhou, Guangdong, People's Republic of China
  city: Guangzhou
  country: China
  domain: gzhmu.edu.cn
  latitude: '23.116667'
  longitude: '113.25'
  university: Guangzhou Medical University
- address: Guiyang, Guizhou, China
  city: Guiyang
  country: China
  domain: gzu.edu.cn
  latitude: '26.583332'
  longitude: '106.71667'
  university: Guizhou University
- address: Gyeongsan, South Korea
  city: Gyeongsan
  country: South Korea
  domain: yu.ac.kr
  latitude: ''
  longitude: ''
  university: Yeungnam University
- address: Hamidiye Campus (main campus in Istanbul, Turkey) and multiple campuses
    in Turkey and abroad
  city: Of
  country: Turkey
  domain: sbu.edu.tr
  latitude: '40.944576'
  longitude: '40.267464'
  university: University of Health Sciences
- address: Hangzhou & Quzhou, Zhejiang, People's Republic of China
  city: Hangzhou
  country: China
  domain: zjut.edu.cn
  latitude: '30.29365'
  longitude: '120.16142'
  university: Zhejiang University of Technology
- address: Hangzhou, People's Republic of China
  city: Hangzhou
  country: China
  domain: hznu.edu.cn
  latitude: '30.29365'
  longitude: '120.16142'
  university: Hangzhou Normal University
- address: Hangzhou, Zhejiang, China
  city: Hangzhou
  country: China
  domain: hdu.edu.cn
  latitude: '30.29365'
  longitude: '120.16142'
  university: Hangzhou Dianzi University
- address: hanzhonglu140, Jiangsu Province, China
  city: Nanjing
  country: China
  domain: njmu.edu.cn
  latitude: '32.06167'
  longitude: '118.77778'
  university: Nanjing Medical University
- address: Harbin Institute of Technology, 92 West Dazhi Street, Nangang District,
    Harbin, Heilongjiang Province 150001, China
  city: Harbin
  country: China
  domain: hit.edu.cn
  latitude: '45.75'
  longitude: '126.65'
  university: Harbin Institute of Technology
- address: Harbin, Heilonjiang, China
  city: Harbin
  country: China
  domain: hrbmu.edu.cn
  latitude: '45.75'
  longitude: '126.65'
  university: Harbin Medical University
- address: Harvard University, Cambridge, Massachusetts 02138-3800, United States
    of America
  city: Cambridge
  country: United States
  domain: harvard.edu
  latitude: '42.375'
  longitude: '-71.10611'
  university: Harvard University
- address: Hasselt, Belgium
  city: Hasselt
  country: Belgium
  domain: uhasselt.be
  latitude: '50.933334'
  longitude: '5.333333'
  university: Hasselt University
- address: Hefei, Anhui, China
  city: Hefei
  country: China
  domain: ahu.edu.cn
  latitude: '31.86389'
  longitude: '117.28083'
  university: Anhui University
- address: Hefei, Anhui, China
  city: Hefei
  country: China
  domain: ahmu.edu.cn
  latitude: '31.86389'
  longitude: '117.28083'
  university: Anhui Medical University
- address: Hefei, Anhui, China
  city: Hefei
  country: China
  domain: ahau.edu.cn
  latitude: '31.86389'
  longitude: '117.28083'
  university: Anhui Agricultural University
- address: "Heinrich-Heine-Universit\xE4t D\xFCsseldorf, Universit\xE4t sstrasse 1,\
    \ 40225 D\xFCseldorf, North Rhine-Westfalia, Germany"
  city: "D\xFCsseldorf"
  country: Germany
  domain: uni-duesseldorf.de
  latitude: '51.216667'
  longitude: '6.766667'
  university: "University of D\xFCsseldorf"
- address: Helmholtzstr. 16
  city: Ulm
  country: Germany
  domain: uni-ulm.de
  latitude: '48.4'
  longitude: '10'
  university: Ulm University
- address: "Helmholtzstra\xDFe 10"
  city: Dresden
  country: Germany
  domain: tu-dresden.de
  latitude: '51.05'
  longitude: '13.75'
  university: Technical University of Dresden
- address: Herzl St. 2
  city: Rehovot
  country: Israel
  domain: weizmann.ac.il
  latitude: ''
  longitude: ''
  university: Weizmann Institute of Science
- address: Heslington
  city: York
  country: United Kingdom
  domain: york.ac.uk
  latitude: '53.954117'
  longitude: '-1.064262'
  university: University of York
- address: High St
  city: Sydney
  country: Australia
  domain: unsw.edu.au
  latitude: '-33.86148'
  longitude: '151.20547'
  university: University of New South Wales
- address: Hochschulstrasse 4
  city: Bern
  country: Switzerland
  domain: unibe.ch
  latitude: '46.916668'
  longitude: '7.466667'
  university: University of Bern
- address: "H\xF8gskoleringen 1"
  city: Trondheim
  country: Norway
  domain: ntnu.edu
  latitude: '63.416668'
  longitude: '10.416667'
  university: Norwegian University of Science and Technology - NTNU
- address: Houghton Street
  city: London
  country: United Kingdom
  domain: lse.ac.uk
  latitude: '51.514126'
  longitude: '-0.093689'
  university: London School of Economics and Political Science
- address: Houtlaan 4
  city: Nijmegen
  country: Netherlands
  domain: ru.nl
  latitude: '51.833332'
  longitude: '5.866667'
  university: Radboud University
- address: Hung Hom, Kowloon,
  city: Hong Kong
  country: China
  domain: polyu.edu.hk
  latitude: ''
  longitude: ''
  university: Hong Kong Polytechnic University
- address: I I T POST OFFICE
  city: Madras
  country: India
  domain: iitm.ac.in
  latitude: '13.083333'
  longitude: '80.28333'
  university: Indian Institute of Technology Madras
- address: IIT
  city: Kharagpur
  country: India
  domain: iitkgp.ac.in
  latitude: '22.333332'
  longitude: '87.333336'
  university: Indian Institute of Technology Kharagpur
- address: Incheon, South Korea
  city: Incheon
  country: South Korea
  domain: inha.ac.kr
  latitude: ''
  longitude: ''
  university: Inha University
- address: Indian Institute of Technology, Delhi, Hauz Khas, New Delhi 110016, India
  city: Delhi
  country: India
  domain: iitd.ac.in
  latitude: '28.666668'
  longitude: '77.21667'
  university: Indian Institute of Technology Delhi
- address: Innrain 52
  city: Innsbruck
  country: Austria
  domain: uibk.ac.at
  latitude: '47.266666'
  longitude: '11.4'
  university: University of Innsbruck
- address: Islamabad, Pakistan
  city: Islamabad
  country: Pakistan
  domain: comsats.edu.pk
  latitude: '33.69'
  longitude: '73.0551'
  university: COMSATS University Islamabad
- address: Istanbul University Main Campus Beyazit
  city: Istanbul
  country: Turkey
  domain: istanbul.edu.tr
  latitude: '41.018612'
  longitude: '28.964722'
  university: Istanbul University
- address: Jalal Ale Ahmad Highway
  city: Tehran
  country: Iran
  domain: modares.ac.ir
  latitude: ''
  longitude: ''
  university: Tarbiat Modares University
- address: Jardin du Pharo, 58 bd Charles Livon
  city: Marseille
  country: France
  domain: univ-amu.fr
  latitude: '43.28541'
  longitude: '5.37606'
  university: Aix-Marseille University
- address: Jhongda Rd.
  city: Taoyuan
  country: China
  domain: ncu.edu.tw
  latitude: ''
  longitude: ''
  university: National Central University
- address: Jinan, Shandong, China
  city: Jinan
  country: China
  domain: sdnu.edu.cn
  latitude: '36.66833'
  longitude: '116.99722'
  university: Shandong Normal University
- address: Jinhua, Zhejiang, China
  city: Jinhua
  country: China
  domain: zjnu.edu.cn
  latitude: '29.107779'
  longitude: '119.654724'
  university: Zhejiang Normal University
- address: "Johann Wolfgang Goethe-Universit\xE4t Frankfurt am Main, PO Box 111932,\
    \ Senckenberganlage 31, 60054 Frankfurt am Main, Germany"
  city: Frankfurt
  country: Germany
  domain: goethe-university-frankfurt.de
  latitude: '50.11667'
  longitude: '8.683333'
  university: Goethe University Frankfurt
- address: "Johannes Gutenberg-Universit\xE4t Mainz, Saarstrasse 21, 55099 Mainz,\
    \ Germany"
  city: Mainz
  country: Germany
  domain: uni-mainz.de
  latitude: '50'
  longitude: '8.271111'
  university: Johannes Gutenberg University Mainz
- address: John Street, Hawthorn, Victoria
  city: Melbourne
  country: Australia
  domain: swinburne.edu.au
  latitude: '-37.81394'
  longitude: '144.96342'
  university: Swinburne University of Technology
- address: Juntendo Daigaku, 2-1-1 Hongo, Bunkyo-ku, Tokyo 113, Japan
  city: Tokyo
  country: Japan
  domain: juntendo.ac.jp
  latitude: '35.685'
  longitude: '139.75139'
  university: Juntendo University
- address: "Justus Liebig-Universit\xE4t Gie\xDFen, Ludwigstrasse 23, D-35390 Giessen,\
    \ Hessen, Germany"
  city: Giessen
  country: Germany
  domain: uni-giessen.de
  latitude: ''
  longitude: ''
  university: Justus Liebig University Giessen
- address: Kaiserstr. 12
  city: Karlsruhe
  country: Germany
  domain: kit.edu
  latitude: '49.004723'
  longitude: '8.385833'
  university: Karlsruhe Institute of Technology
- address: Kakuma
  city: Kanazawa
  country: Japan
  domain: kanazawa-u.ac.jp
  latitude: ''
  longitude: ''
  university: Kanazawa University
- address: Kalikata Viswavidyalaya, Senate House, 87/1 College Street, Kolkata, West
    Bengal 700073, India
  city: Kolkata
  country: India
  domain: caluniv.ac.in
  latitude: ''
  longitude: ''
  university: University of Calcutta
- address: Kansas State University, Manhattan, Kansas 66506, United States of America
  city: Manhattan
  country: United States
  domain: k-state.edu
  latitude: '39.183613'
  longitude: '-96.57139'
  university: Kansas State University
- address: Karlsplatz 13
  city: Vienna
  country: Austria
  domain: tuwien.ac.at
  latitude: '48.2'
  longitude: '16.366667'
  university: Vienna University of Technology
- address: Karolinenplatz 5
  city: Darmstadt
  country: Germany
  domain: tu-darmstadt.de
  latitude: '49.870556'
  longitude: '8.649444'
  university: Technical University of Darmstadt
- address: Kassel, Hesse, Germany
  city: Kassel
  country: Germany
  domain: uni-kassel.de
  latitude: '51.316666'
  longitude: '9.5'
  university: University of Kassel
- address: Kent State University, PO Box 5190, Kent, Ohio 44242-0001, United States
    of America
  city: Kent
  country: United States
  domain: kent.edu
  latitude: '41.15361'
  longitude: '-81.358055'
  university: Kent State University
- address: Kent Street
  city: Perth
  country: Australia
  domain: curtin.edu.au
  latitude: '-31.95224'
  longitude: '115.8614'
  university: Curtin University
- address: Keplerstr. 7
  city: Stuttgart
  country: Germany
  domain: uni-stuttgart.de
  latitude: '48.766666'
  longitude: '9.183333'
  university: University of Stuttgart
- address: Keppel Street
  city: London
  country: United Kingdom
  domain: lshtm.ac.uk
  latitude: '51.514126'
  longitude: '-0.093689'
  university: London School of Hygiene & Tropical Medicine
- address: Kessels Road, Nathan, QLD 4111
  city: Griffith
  country: Australia
  domain: griffith.edu.au
  latitude: '-34.28853'
  longitude: '146.05093'
  university: Griffith University
- address: KFUPM Box 673
  city: Dhahran
  country: Saudi Arabia
  domain: kfupm.edu.sa
  latitude: ''
  longitude: ''
  university: King Fahd University of Petroleum and Minerals
- address: Kilevej 14
  city: Copenhagen
  country: Denmark
  domain: cbs.dk
  latitude: '55.666668'
  longitude: '12.583333'
  university: Copenhagen Business School
- address: King Abdulla St
  city: Riyadh
  country: Saudi Arabia
  domain: ksu.edu.sa
  latitude: '24.653664'
  longitude: '46.71522'
  university: King Saud University
- address: King's College, Old Aberdeen
  city: Aberdeen
  country: United Kingdom
  domain: abdn.ac.uk
  latitude: '57.13333'
  longitude: '-2.1'
  university: University of Aberdeen
- address: King's Gate
  city: Newcastle upon Tyne
  country: United Kingdom
  domain: ncl.ac.uk
  latitude: '54.988056'
  longitude: '-1.619444'
  university: Newcastle University
- address: Kingston Lane
  city: London
  country: United Kingdom
  domain: brunel.ac.uk
  latitude: '51.514126'
  longitude: '-0.093689'
  university: Brunel University London
- address: Kirkwood Avenue
  city: Christchurch
  country: New Zealand
  domain: canterbury.ac.nz
  latitude: '-43.533333'
  longitude: '172.63333'
  university: University of Canterbury
- address: Kita 8, Nishi 5, Kita-ku
  city: Sapporo
  country: Japan
  domain: hokudai.ac.jp
  latitude: ''
  longitude: ''
  university: Hokkaido University
- address: Kongresni trg 12
  city: Ljubljana
  country: Slovenia
  domain: uni-lj.si
  latitude: '46.05528'
  longitude: '14.514444'
  university: University of Ljubljana
- address: Korea Advanced Institute of Science and Technology, Yuseong, Daejeon, South
    Korea
  city: Daejeon
  country: South Korea
  domain: kaist.edu
  latitude: ''
  longitude: ''
  university: Korea Advanced Institute of Science and Technology
- address: Kowloon Tong
  city: Hong Kong
  country: China
  domain: hkbu.edu.hk
  latitude: ''
  longitude: ''
  university: Hong Kong Baptist University
- address: Krakowskie Przedmiescie 26/28
  city: Warsaw
  country: Poland
  domain: uw.edu.pl
  latitude: '52.25'
  longitude: '21'
  university: University of Warsaw
- address: Krizkovskeho, 8
  city: Olomouc
  country: Czech Republic
  domain: upol.cz
  latitude: '49.59404'
  longitude: '17.25119'
  university: "Palack\xFD University Olomouc"
- address: Kunming, Yunnan, China
  city: Kunming
  country: China
  domain: kmust.edu.cn
  latitude: '25.038889'
  longitude: '102.71833'
  university: Kunming University of Science and Technology
- address: Kyoto Daigaku, Yoshida-Honmachi, Sakyo-ku, Kyoto-shi, Kyoto 606-8501, Japan
  city: Kyoto
  country: Japan
  domain: kyoto-u.ac.jp
  latitude: ''
  longitude: ''
  university: Kyoto University
- address: Kyushu Daigaku, 6-10-1 Hakozaki, Higashi-ku, Fukuoka 812-8581, Japan
  city: Fukuoka
  country: Japan
  domain: kyushu-u.ac.jp
  latitude: ''
  longitude: ''
  university: Kyushu University
- address: Lancaster University, Bailrigg, Lancaster, LA1 4YW, United Kingdom
  city: Lancaster
  country: United Kingdom
  domain: lancaster.ac.uk
  latitude: '54.066666'
  longitude: '-2.833333'
  university: Lancaster University
- address: Lanzhou University, 298 Tianshui Road, Lanzhou, Gansu Province 730000,
    China
  city: Lanzhou
  country: China
  domain: lzu.edu.cn
  latitude: '36.05639'
  longitude: '103.79222'
  university: Lanzhou University
- address: Largo do Paco
  city: Braga
  country: Portugal
  domain: uminho.pt
  latitude: '41.550323'
  longitude: '-8.420052'
  university: University of Minho
- address: Largo Gemelli 1
  city: Milan
  country: Italy
  domain: ucsc.it
  latitude: '45.466667'
  longitude: '9.2'
  university: Catholic University of the Sacred Heart
- address: Lisbon, Portugal
  city: Lisbon
  country: Portugal
  domain: unl.pt
  latitude: '38.716667'
  longitude: '-9.133333'
  university: NOVA University of Lisbon
- address: Liverpool, England, United Kingdom
  city: Liverpool
  country: United Kingdom
  domain: ljmu.ac.uk
  latitude: '53.416668'
  longitude: '-3'
  university: Liverpool John Moores University
- address: Lleida, Catalonia, Spain
  city: Lleida
  country: Spain
  domain: udl.cat
  latitude: '41.61667'
  longitude: '0.633333'
  university: Universitat de Lleida
- address: London and Hertfordshire, United Kingdom
  city: London
  country: United Kingdom
  domain: rvc.ac.uk
  latitude: '51.514126'
  longitude: '-0.093689'
  university: Royal Veterinary College
- address: LongGuanBeiNong Road No.2, ChangPing District, Beijing, China
  city: Changping
  country: China
  domain: ncepu.edu.cn
  latitude: '40.218613'
  longitude: '116.21972'
  university: North China Electric Power University
- address: LongMian Road No.639, Jiangsu Province, China
  city: Nanjing
  country: China
  domain: cpu.edu.cn
  latitude: '32.06167'
  longitude: '118.77778'
  university: China Pharmaceutical University
- address: Louisiana State University and Agricultural and Mechanical College, Baton
    Rouge, Louisiana 70803-0100, United States of America
  city: Baton Rouge
  country: United States
  domain: lsu.edu
  latitude: '30.450556'
  longitude: '-91.15444'
  university: Louisiana State University - Baton Rouge
- address: Loyola University of Chicago, 820 North Michigan Avenue, Chicago, Illinois
    60611-2196, United States of America
  city: Chicago
  country: United States
  domain: luc.edu
  latitude: '41.85'
  longitude: '-87.65'
  university: Loyola University Chicago
- address: "L\xFCbeck, Schleswig-Holstein, Germany"
  city: "L\xFCbeck"
  country: Germany
  domain: uni-luebeck.de
  latitude: '53.86667'
  longitude: '10.7'
  university: "University of L\xFCbeck"
- address: Lungarno Pacinotti, 43
  city: Pisa
  country: Italy
  domain: unipi.it
  latitude: '43.716667'
  longitude: '10.383333'
  university: University of Pisa
- address: Luo-jia-shan, Wuchang, Hubei Province, China
  city: Wuhan
  country: China
  domain: whu.edu.cn
  latitude: '30.580126'
  longitude: '114.27341'
  university: Wuhan University
- address: Luoyu Street, Hubei Province, China
  city: Wuhan
  country: China
  domain: ccnu.edu.cn
  latitude: '30.580126'
  longitude: '114.27341'
  university: Central China Normal University
- address: Lushan Rd. Yuelu District, Hunan Province, China
  city: Changsha
  country: China
  domain: hnu.edu.cn
  latitude: ''
  longitude: ''
  university: Hunan University
- address: Lushan Rd. Yuelu District, Hunan Province, China
  city: Changsha
  country: China
  domain: hunnu.edu.cn
  latitude: ''
  longitude: ''
  university: Hunan Normal University
- address: Lynnwood road
  city: Pretoria
  country: South Africa
  domain: up.ac.za
  latitude: '-25.706944'
  longitude: '28.229445'
  university: University of Pretoria
- address: Macquarie University, Balaclava Road, North Ryde, Sydney, New South Wales
    2109, Australia
  city: Sydney
  country: Australia
  domain: mq.edu.au
  latitude: '-33.86148'
  longitude: '151.20547'
  university: Macquarie University
- address: Malet Street, Bloomsbury
  city: London
  country: United Kingdom
  domain: bbk.ac.uk
  latitude: '51.514126'
  longitude: '-0.093689'
  university: Birkbeck, University of London
- address: Manchester Metropolitan University, All Saints Building, All Saints
  city: Manchester
  country: United Kingdom
  domain: mmu.ac.uk
  latitude: '53.5'
  longitude: '-2.216667'
  university: Manchester Metropolitan University
- address: Mark and Paula Hurd Welcome Center, 905 S. University Parks Dr., Waco,
    TX 76706, USA
  city: Waco
  country: United States
  domain: baylor.edu
  latitude: '31.549168'
  longitude: '-97.146385'
  university: Baylor University
- address: "Martin-Luther-Universit\xE4t Halle-Wittenberg, Universit\xE4t splatz 10,\
    \ 06099 Halle (Saale), Germany"
  city: Halle
  country: Germany
  domain: uni-halle.de
  latitude: '51.5'
  longitude: '12'
  university: Martin Luther University Halle-Wittenberg
- address: Max and Anna Web
  city: Ramat Gan
  country: Israel
  domain: biu.ac.il
  latitude: '32.080555'
  longitude: '34.814167'
  university: Bar-Ilan University
- address: Mayo Medical School, 200 First Street, Southwest, Rochester, Minnesota
    55905-0001, United States of America
  city: Rochester
  country: United States
  domain: college.mayo.edu
  latitude: '43.304443'
  longitude: '-70.97611'
  university: Mayo Clinic College of Medicine and Science
- address: McGill University, 845 Sherbrooke Street West, Suite 506, Montreal, Quebec
    H3A 2T5, Canada
  city: Montreal
  country: Canada
  domain: mcgill.ca
  latitude: '45.5'
  longitude: '-73.583336'
  university: McGill University
- address: Medical College of Wisconsin, 8701 Watertown Plank Road, Milwaukee, Wisconsin
    53226-0509, United States of America
  city: Watertown
  country: United States
  domain: mcw.edu
  latitude: '44.899445'
  longitude: '-97.11472'
  university: Medical College of Wisconsin
- address: Medical University of Vienna, Spitalgasse 23, 1090 Vienna, Austria
  city: Vienna
  country: Austria
  domain: meduniwien.ac.at
  latitude: '48.2'
  longitude: '16.366667'
  university: Medical University of Vienna
- address: Medizinische Hochschule Hannover, Carl-Neuberg Strasse 1, 30625 Hannover,
    Germany
  city: Hanover
  country: Germany
  domain: mh-hannover.de
  latitude: '52.36667'
  longitude: '9.716667'
  university: Hannover Medical School
- address: Medizinische University Graz, University splatz 3, 8010 Graz, Styria, Austria
  city: Graz
  country: Austria
  domain: medunigraz.at
  latitude: '47.066666'
  longitude: '15.45'
  university: Medical University of Graz
- address: Medizinische University Innsbruck, Christoph-Probst-Platz, 6020 Innsbruck,
    Tyrol, Austria
  city: Innsbruck
  country: Austria
  domain: i-med.ac.at
  latitude: '47.266666'
  longitude: '11.4'
  university: Medical University of Innsbruck
- address: Michigan State University, East Lansing, Michigan 48824, United States
    of America
  city: Lansing
  country: United States
  domain: msu.edu
  latitude: '42.7325'
  longitude: '-84.55556'
  university: Michigan State University
- address: Mile End Road
  city: London
  country: United Kingdom
  domain: qmul.ac.uk
  latitude: '51.514126'
  longitude: '-0.093689'
  university: Queen Mary University of London
- address: Minato, Tokyo, Japan
  city: Tokyo
  country: Japan
  domain: kitasato-u.ac.jp
  latitude: '35.685'
  longitude: '139.75139'
  university: Kitasato University
- address: Minderbroedersberg 4-6
  city: Maastricht
  country: Netherlands
  domain: maastrichtuniversity.nl
  latitude: '50.85'
  longitude: '5.683333'
  university: Maastricht University
- address: Mittelweg 177
  city: Hamburg
  country: Germany
  domain: uni-hamburg.de
  latitude: '53.55'
  longitude: '10'
  university: University of Hamburg
- address: Modena and Reggio Emilia, Italy
  city: Modena
  country: Italy
  domain: unimore.it
  latitude: '44.666668'
  longitude: '10.916667'
  university: University of Modena and Reggio Emilia
- address: Montreal, Quebec, Canada
  city: Montreal
  country: Canada
  domain: uqam.ca
  latitude: '45.5'
  longitude: '-73.583336'
  university: "University of Qu\xE9bec at Montreal"
- address: Moskovskij Gosudarstvennyj Universitet im. M.V. Lomonosova, Leninskie Gory,
    Moscow 119992, Russian Federation
  city: Lomonosov
  country: Russia
  domain: msu.ru
  latitude: '59.90612'
  longitude: '29.772528'
  university: Lomonosov Moscow State University
- address: Mount Scopus
  city: Jerusalem
  country: Israel
  domain: huji.ac.il
  latitude: '31.78'
  longitude: '35.23'
  university: Hebrew University of Jerusalem
- address: Mount Sinai School of Medicine, Manhattan, New York City, New York, USA
  city: Manhattan
  country: United States
  domain: mssm.edu
  latitude: '39.183613'
  longitude: '-96.57139'
  university: Icahn School of Medicine at Mount Sinai
- address: MuCai Street No.59, XiangFang District, Heilongjiang Province, China
  city: Harbin
  country: China
  domain: neau.edu.cn
  latitude: '45.75'
  longitude: '126.65'
  university: Northeast Agricultural University
- address: "M\u0171egyetem rakpart 3."
  city: Budapest
  country: Hungary
  domain: bme.hu
  latitude: '47.5'
  longitude: '19.083332'
  university: Budapest University of Technology and Economics
- address: Nahdet Misr Street
  city: Cairo
  country: Egypt
  domain: cu.edu.eg
  latitude: '30.05'
  longitude: '31.25'
  university: Cairo University
- address: Nan Er Huan Zhong Duan, Shanxi Province, China
  city: Xi'an
  country: China
  domain: chd.edu.cn
  latitude: ''
  longitude: ''
  university: Chang'an University
- address: Nanchang, Jiangxi, China
  city: Nanchang
  country: China
  domain: ncu.edu.cn
  latitude: '28.55'
  longitude: '115.933334'
  university: Nanchang University
- address: Nanjing, Jiangsu, China
  city: Nanjing
  country: China
  domain: njupt.edu.cn
  latitude: '32.06167'
  longitude: '118.77778'
  university: Nanjing University of Posts and Telecommunications
- address: Nanjing, Jiangsu, China
  city: Nanjing
  country: China
  domain: njfu.edu.cn
  latitude: '32.06167'
  longitude: '118.77778'
  university: Nanjing Forestry University
- address: Nantes, France
  city: Nantes
  country: France
  domain: univ-nantes.fr
  latitude: '47.21651'
  longitude: '-1.552379'
  university: Nantes University
- address: Nantong, Jiangsu, China
  city: Nantong
  country: China
  domain: ntu.edu.cn
  latitude: '32.030277'
  longitude: '120.874725'
  university: Nantong University
- address: Narmak, Tehran 1684613114, Islamic Republic of Iran
  city: Tehran
  country: Iran
  domain: iust.ac.ir
  latitude: ''
  longitude: ''
  university: Iran University of Science and Technology
- address: National University of Sciences and Technology (NUST) Sector H-12, Islamabad,
    Pakistan.
  city: Islamabad
  country: Pakistan
  domain: nust.edu.pk
  latitude: '33.69'
  longitude: '73.0551'
  university: National University of Sciences and Technology
- address: Nethergate
  city: Dundee
  country: United Kingdom
  domain: dundee.ac.uk
  latitude: '56.5'
  longitude: '-2.966667'
  university: University of Dundee
- address: New Delhi, India
  city: Delhi
  country: India
  domain: du.ac.in
  latitude: '28.666668'
  longitude: '77.21667'
  university: Delhi University
- address: New Jersey Institute of Technology, University Heights, Newark, New Jersey
    07102-1982, United States of America
  city: Newark
  country: United States
  domain: njit.edu
  latitude: '40.735554'
  longitude: '-74.172775'
  university: New Jersey Institute of Technology
- address: New York University, 70 Washington Square South, New York, N.Y. 10012-1092,
    United States of America
  city: New York
  country: United States
  domain: nyu.edu
  latitude: '40.71417'
  longitude: '-74.006386'
  university: New York University
- address: Newcastle upon Tyne, Tyne and Wear, England, UK
  city: Newcastle upon Tyne
  country: United Kingdom
  domain: northumbria.ac.uk
  latitude: '54.988056'
  longitude: '-1.619444'
  university: Northumbria University
- address: Nicolls Road
  city: Stony Brook
  country: United States
  domain: stonybrook.edu
  latitude: '40.925556'
  longitude: '-73.14139'
  university: Stony Brook University
- address: Ningbo, Zhejiang, China
  city: Ningbo
  country: China
  domain: nbu.edu.cn
  latitude: '29.878185'
  longitude: '121.54945'
  university: Ningbo University
- address: No 10, Xitucheng Road, Haidian District, Beijing, China
  city: Beijing
  country: China
  domain: bupt.edu.cn
  latitude: '39.92889'
  longitude: '116.388336'
  university: Beijing University of Posts and Telecommunications
- address: No. 1, Sec. 4, Roosevelt Road,
  city: Taipei
  country: China
  domain: ntu.edu.tw
  latitude: '25.039167'
  longitude: '121.525'
  university: National Taiwan University
- address: No. 101, Section 2, Kuang-Fu Road
  city: Hsinchu
  country: China
  domain: nthu.edu.tw
  latitude: ''
  longitude: ''
  university: National Tsing Hua University
- address: No. 5, Jalan University, Bandar Sunway, 47500 Selangor, Malaysia
  city: Petaling Jaya
  country: Malaysia
  domain: sunwayuniversity.edu.my
  latitude: '3.083333'
  longitude: '101.65'
  university: Sunway University
- address: No. 70, Lienhai Rd., Kaohsiung 80424 Taiwan, R.O.C.
  city: ''
  country: China
  domain: nsysu.edu.tw
  latitude: ''
  longitude: ''
  university: National Sun Yat-sen University
- address: No.1, Shizishan Street, Hubei Province, China
  city: Wuhan
  country: China
  domain: hzau.edu.cn
  latitude: '30.580126'
  longitude: '114.27341'
  university: Huazhong Agricultural University
- address: No.1, University Road
  city: Tainan
  country: China
  domain: ncku.edu.tw
  latitude: ''
  longitude: ''
  university: National Cheng Kung University
- address: No.100 Pingleyuan, chaoyang District, Beijing, China
  city: Beijing
  country: China
  domain: bjut.edu.cn
  latitude: '39.92889'
  longitude: '116.388336'
  university: Beijing University of Technology
- address: No.130, Meilong Road, Shanghai, China
  city: Shanghai
  country: China
  domain: ecust.edu.cn
  latitude: '31.045555'
  longitude: '121.39972'
  university: East China University of Science and Technology
- address: No.135, Xingang Xi Road, Guangdong Province, China
  city: Guangzhou
  country: China
  domain: sysu.edu.cn
  latitude: '23.116667'
  longitude: '113.25'
  university: Sun Yat-sen University
- address: No.17 Qinghua Donglu, Haidian District, Beijing, China
  city: Beijing
  country: China
  domain: cau.edu.cn
  latitude: '39.92889'
  longitude: '116.388336'
  university: China Agricultural University
- address: "No.1800\uFF0CLihu Avenue, Jiangsu, China"
  city: Wuxi
  country: China
  domain: jiangnan.edu.cn
  latitude: '31.568872'
  longitude: '120.288574'
  university: Jiangnan University
- address: No.19, Xinjiekouwaidajie, Haidian District, Beijing, China
  city: Beijing
  country: China
  domain: bnu.edu.cn
  latitude: '39.92889'
  longitude: '116.388336'
  university: Beijing Normal University
- address: "NO.199 Chang\u2018an South Road, Shanxi Province, China"
  city: Xi'an
  country: China
  domain: snnu.edu.cn
  latitude: ''
  longitude: ''
  university: Shaanxi Normal University
- address: No.2 Linggong Road, Liaoning Province, China
  city: Dalian
  country: China
  domain: dlut.edu.cn
  latitude: '38.912224'
  longitude: '121.60222'
  university: Dalian University of Technology
- address: No.24 South Section 1, Yihuan Road, Sichuan Province, China
  city: Chengdu
  country: China
  domain: scu.edu.cn
  latitude: '30.666668'
  longitude: '104.066666'
  university: Sichuan University
- address: No.259, Wenhua 1st Rd., Guishan Dist.
  city: Taoyuan
  country: China
  domain: cgu.edu.tw
  latitude: ''
  longitude: ''
  university: Chang Gung University
- address: No.2699, Qianjin Street, Jilin Province, China
  city: Jilin
  country: China
  domain: jlu.edu.cn
  latitude: '43.850834'
  longitude: '126.56028'
  university: Jilin University
- address: No.28, Xianning West Road, Shanxi Province, China
  city: Xi'an
  country: China
  domain: xjtu.edu.cn
  latitude: ''
  longitude: ''
  university: Xi'an Jiaotong University
- address: No.29, College Road, Haidian District, Beijing, China
  city: Beijing
  country: China
  domain: cugb.edu.cn
  latitude: '39.92889'
  longitude: '116.388336'
  university: China University of Geosciences, Beijing
- address: No.3 Shang Yuan Cun, Hai Dian District, Beijing, China
  city: Beijing
  country: China
  domain: njtu.edu.cn
  latitude: '39.92889'
  longitude: '116.388336'
  university: Beijing Jiaotong University
- address: No.3 Taicheng, Shanxi Province, China
  city: Taicheng
  country: China
  domain: nwsuaf.edu.cn
  latitude: '22.251347'
  longitude: '112.77991'
  university: Northwest A&F University
- address: No.3-11, Wenhua Road, Heping District, Liaoning Province, China
  city: Shenyang
  country: China
  domain: neu.edu.cn
  latitude: '41.79222'
  longitude: '123.43278'
  university: Northeastern University, China
- address: No.30, Xueyuan Road, Haidian District, Beijing, China
  city: Beijing
  country: China
  domain: ustb.edu.cn
  latitude: '39.92889'
  longitude: '116.388336'
  university: University of Science and Technology Beijing
- address: No.35 Tsinghua East Road Haidian Distrct, Beijing, China
  city: Beijing
